[{"school_id":"B000023141","school_name":"도담고등학교","school_classification":"고등학교","operational_status":"운영","office_of_edu_code":9300000,"office_of_edu_name":"세종특별자치시교육청","latitude":36.51420716,"longitude":127.2634446},
{"school_id":"B000013532","school_name":"대전여자고등학교","school_classification":"고등학교","operational_status":"운영","office_of_edu_code":7430000,"office_of_edu_name":"대전광역시교육청","latitude":36.33001268,"longitude":127.4463707},
{"school_id":"B000012386","school_name":"중일고등학교","school_classification":"고등학교","operational_status":"운영","office_of_edu_code":7430000,"office_of_edu_name":"대전광역시교육청","latitude":36.42052491,"longitude":127.3886965},
{"school_id":"B000012883","school_name":"진천고등학교","school_classification":"고등학교","operational_status":"운영","office_of_edu_code":8000000,"office_of_edu_name":"충청북도교육청","latitude":36.8539549,"longitude":127.4499542},
{"school_id":"B000022940","school_name":"강경상업고등학교","school_classification":"고등학교","operational_status":"운영","office_of_edu_code":8140000,"office_of_edu_name":"충청남도교육청","latitude":36.16142445,"longitude":127.023298},
{"school_id":"B000012960","school_name":"대흥고등학교","school_classification":"고등학교","operational_status":"운영","office_of_edu_code":8140000,"office_of_edu_name":"충청남도교육청","latitude":36.60548656,"longitude":126.7916056},
{"school_id":"B000012388","school_name":"동대전고등학교","school_classification":"고등학교","operational_status":"운영","office_of_edu_code":7430000,"office_of_edu_name":"대전광역시교육청","latitude":36.35628714,"longitude":127.4236428},
{"school_id":"B000023263","school_name":"세종고등학교","school_classification":"고등학교","operational_status":"운영","office_of_edu_code":9300000,"office_of_edu_name":"세종특별자치시교육청","latitude":36.6113263,"longitude":127.298987},
{"school_id":"B000012380","school_name":"대전지족고등학교","school_classification":"고등학교","operational_status":"운영","office_of_edu_code":7430000,"office_of_edu_name":"대전광역시교육청","latitude":36.37803212,"longitude":127.3156568},
{"school_id":"B000023142","school_name":"다정고등학교","school_classification":"고등학교","operational_status":"운영","office_of_edu_code":9300000,"office_of_edu_name":"세종특별자치시교육청","latitude":36.4933412,"longitude":127.2422287},
{"school_id":"B000013537","school_name":"서대전여자고등학교","school_classification":"고등학교","operational_status":"운영","office_of_edu_code":7430000,"office_of_edu_name":"대전광역시교육청","latitude":36.32773715,"longitude":127.369556},
{"school_id":"B000012878","school_name":"보은고등학교","school_classification":"고등학교","operational_status":"운영","office_of_edu_code":8000000,"office_of_edu_name":"충청북도교육청","latitude":36.47530948,"longitude":127.7205512},
{"school_id":"B000022925","school_name":"용남고등학교","school_classification":"고등학교","operational_status":"운영","office_of_edu_code":8140000,"office_of_edu_name":"충청남도교육청","latitude":36.29430921,"longitude":127.2447646},
{"school_id":"B000012962","school_name":"안면고등학교","school_classification":"고등학교","operational_status":"운영","office_of_edu_code":8140000,"office_of_edu_name":"충청남도교육청","latitude":36.50942768,"longitude":126.3560096},
{"school_id":"B000012374","school_name":"서대전고등학교","school_classification":"고등학교","operational_status":"운영","office_of_edu_code":7430000,"office_of_edu_name":"대전광역시교육청","latitude":36.36013353,"longitude":127.3695006},
{"school_id":"B000012859","school_name":"운호고등학교","school_classification":"고등학교","operational_status":"운영","office_of_edu_code":8000000,"office_of_edu_name":"충청북도교육청","latitude":36.62505317,"longitude":127.4851868},
{"school_id":"B000012961","school_name":"태안고등학교","school_classification":"고등학교","operational_status":"운영","office_of_edu_code":8140000,"office_of_edu_name":"충청남도교육청","latitude":36.75429893,"longitude":126.3178128},
{"school_id":"B000023137","school_name":"세종국제고등학교","school_classification":"고등학교","operational_status":"운영","office_of_edu_code":9300000,"office_of_edu_name":"세종특별자치시교육청","latitude":36.52175116,"longitude":127.2468867},
{"school_id":"B000012963","school_name":"태안여자고등학교","school_classification":"고등학교","operational_status":"운영","office_of_edu_code":8140000,"office_of_edu_name":"충청남도교육청","latitude":36.7592675,"longitude":126.2892542},
{"school_id":"B000023138","school_name":"세종과학예술영재학교","school_classification":"고등학교","operational_status":"운영","office_of_edu_code":9300000,"office_of_edu_name":"세종특별자치시교육청","latitude":36.52289844,"longitude":127.2491308},
{"school_id":"B000012367","school_name":"대전둔원고등학교","school_classification":"고등학교","operational_status":"운영","office_of_edu_code":7430000,"office_of_edu_name":"대전광역시교육청","latitude":36.34283137,"longitude":127.3733872},
{"school_id":"B000011584","school_name":"청주IT과학고등학교","school_classification":"고등학교","operational_status":"운영","office_of_edu_code":8000000,"office_of_edu_name":"충청북도교육청","latitude":36.52188865,"longitude":127.4366168},
{"school_id":"B000012882","school_name":"황간고등학교","school_classification":"고등학교","operational_status":"운영","office_of_edu_code":8000000,"office_of_edu_name":"충청북도교육청","latitude":36.23494649,"longitude":127.910531},
{"school_id":"B000011879","school_name":"충북반도체고등학교","school_classification":"고등학교","operational_status":"운영","office_of_edu_code":8000000,"office_of_edu_name":"충청북도교육청","latitude":36.9945602,"longitude":127.6068945},
{"school_id":"B000012854","school_name":"흥덕고등학교","school_classification":"고등학교","operational_status":"운영","office_of_edu_code":8000000,"office_of_edu_name":"충청북도교육청","latitude":36.63686278,"longitude":127.4239538},
{"school_id":"B000012874","school_name":"양청고등학교","school_classification":"고등학교","operational_status":"운영","office_of_edu_code":8000000,"office_of_edu_name":"충청북도교육청","latitude":36.72699018,"longitude":127.4335201},
{"school_id":"B000012845","school_name":"충북대학교사범대학부설고등학교","school_classification":"고등학교","operational_status":"운영","office_of_edu_code":8000000,"office_of_edu_name":"충청북도교육청","latitude":36.6239268,"longitude":127.4385184},
{"school_id":"B000012965","school_name":"합덕고등학교","school_classification":"고등학교","operational_status":"운영","office_of_edu_code":8140000,"office_of_edu_name":"충청남도교육청","latitude":36.81339746,"longitude":126.7602994},
{"school_id":"B000012850","school_name":"주성고등학교","school_classification":"고등학교","operational_status":"운영","office_of_edu_code":8000000,"office_of_edu_name":"충청북도교육청","latitude":36.63483259,"longitude":127.5106512},
{"school_id":"B000011586","school_name":"보은정보고등학교","school_classification":"고등학교","operational_status":"운영","office_of_edu_code":8000000,"office_of_edu_name":"충청북도교육청","latitude":36.49099891,"longitude":127.7352841},
{"school_id":"B000012353","school_name":"대전가오고등학교","school_classification":"고등학교","operational_status":"운영","office_of_edu_code":7430000,"office_of_edu_name":"대전광역시교육청","latitude":36.3106602,"longitude":127.4544751},
{"school_id":"B000012867","school_name":"충주중산고등학교","school_classification":"고등학교","operational_status":"운영","office_of_edu_code":8000000,"office_of_edu_name":"충청북도교육청","latitude":36.94672185,"longitude":127.937922},
{"school_id":"B000011595","school_name":"증평정보고등학교","school_classification":"고등학교","operational_status":"운영","office_of_edu_code":8000000,"office_of_edu_name":"충청북도교육청","latitude":36.7779141,"longitude":127.5784193},
{"school_id":"B000011886","school_name":"합덕제철고등학교","school_classification":"고등학교","operational_status":"운영","office_of_edu_code":8140000,"office_of_edu_name":"충청남도교육청","latitude":36.8133825,"longitude":126.7624107},
{"school_id":"B000011575","school_name":"충주공업고등학교","school_classification":"고등학교","operational_status":"운영","office_of_edu_code":8000000,"office_of_edu_name":"충청북도교육청","latitude":36.96556942,"longitude":127.9404948},
{"school_id":"B000011878","school_name":"한국바이오마이스터고등학교","school_classification":"고등학교","operational_status":"운영","office_of_edu_code":8000000,"office_of_edu_name":"충청북도교육청","latitude":36.85087948,"longitude":127.4400545},
{"school_id":"B000012875","school_name":"한국교원대학교부설고등학교","school_classification":"고등학교","operational_status":"운영","office_of_edu_code":8000000,"office_of_edu_name":"충청북도교육청","latitude":36.6056652,"longitude":127.3573247},
{"school_id":"B000012863","school_name":"충주고등학교","school_classification":"고등학교","operational_status":"운영","office_of_edu_code":8000000,"office_of_edu_name":"충청북도교육청","latitude":36.96165252,"longitude":127.9302837},
{"school_id":"B000022922","school_name":"계룡고등학교","school_classification":"고등학교","operational_status":"운영","office_of_edu_code":8140000,"office_of_edu_name":"충청남도교육청","latitude":36.2681041,"longitude":127.258139},
{"school_id":"B000012879","school_name":"옥천고등학교","school_classification":"고등학교","operational_status":"운영","office_of_edu_code":8000000,"office_of_edu_name":"충청북도교육청","latitude":36.30838922,"longitude":127.5700421},
{"school_id":"B000013555","school_name":"청주고등학교","school_classification":"고등학교","operational_status":"운영","office_of_edu_code":8000000,"office_of_edu_name":"충청북도교육청","latitude":36.63602351,"longitude":127.4552331},
{"school_id":"B000011573","school_name":"대성여자상업고등학교","school_classification":"고등학교","operational_status":"운영","office_of_edu_code":8000000,"office_of_edu_name":"충청북도교육청","latitude":36.64537659,"longitude":127.4922457},
{"school_id":"B000011874","school_name":"충북예술고등학교","school_classification":"고등학교","operational_status":"운영","office_of_edu_code":8000000,"office_of_edu_name":"충청북도교육청","latitude":36.6108519,"longitude":127.4327541},
{"school_id":"B000012355","school_name":"보문고등학교","school_classification":"고등학교","operational_status":"운영","office_of_edu_code":7430000,"office_of_edu_name":"대전광역시교육청","latitude":36.33697696,"longitude":127.4241257},
{"school_id":"B000022982","school_name":"연무고등학교","school_classification":"고등학교","operational_status":"운영","office_of_edu_code":8140000,"office_of_edu_name":"충청남도교육청","latitude":36.13536466,"longitude":127.1046328},
{"school_id":"B000013556","school_name":"충주예성여자고등학교","school_classification":"고등학교","operational_status":"운영","office_of_edu_code":8000000,"office_of_edu_name":"충청북도교육청","latitude":36.95460514,"longitude":127.9306001},
{"school_id":"B000022988","school_name":"연무대기계공업고등학교","school_classification":"고등학교","operational_status":"운영","office_of_edu_code":8140000,"office_of_edu_name":"충청남도교육청","latitude":36.12582063,"longitude":127.1068829},
{"school_id":"B000012911","school_name":"한일고등학교","school_classification":"고등학교","operational_status":"운영","office_of_edu_code":8140000,"office_of_edu_name":"충청남도교육청","latitude":36.60454634,"longitude":127.1288217},
{"school_id":"B000011569","school_name":"청주농업고등학교","school_classification":"고등학교","operational_status":"운영","office_of_edu_code":8000000,"office_of_edu_name":"충청북도교육청","latitude":36.65852796,"longitude":127.4854368},
{"school_id":"B000012389","school_name":"대전이문고등학교","school_classification":"고등학교","operational_status":"운영","office_of_edu_code":7430000,"office_of_edu_name":"대전광역시교육청","latitude":36.44731214,"longitude":127.4234779},
{"school_id":"B000012383","school_name":"대전용산고등학교","school_classification":"고등학교","operational_status":"운영","office_of_edu_code":7430000,"office_of_edu_name":"대전광역시교육청","latitude":36.42100777,"longitude":127.3959054},
{"school_id":"B000012365","school_name":"대전둔산여자고등학교","school_classification":"고등학교","operational_status":"운영","office_of_edu_code":7430000,"office_of_edu_name":"대전광역시교육청","latitude":36.35297303,"longitude":127.3732835},
{"school_id":"B000012956","school_name":"예산여자고등학교","school_classification":"고등학교","operational_status":"운영","office_of_edu_code":8140000,"office_of_edu_name":"충청남도교육청","latitude":36.68476749,"longitude":126.8336458},
{"school_id":"B000012849","school_name":"청주중앙여자고등학교","school_classification":"고등학교","operational_status":"운영","office_of_edu_code":8000000,"office_of_edu_name":"충청북도교육청","latitude":36.63776915,"longitude":127.4645545},
{"school_id":"B000011590","school_name":"영동미래고등학교","school_classification":"고등학교","operational_status":"운영","office_of_edu_code":8000000,"office_of_edu_name":"충청북도교육청","latitude":36.17809238,"longitude":127.7795959},
{"school_id":"B000012865","school_name":"충주대원고등학교","school_classification":"고등학교","operational_status":"운영","office_of_edu_code":8000000,"office_of_edu_name":"충청북도교육청","latitude":36.97133328,"longitude":127.951823},
{"school_id":"B000011571","school_name":"충북공업고등학교","school_classification":"고등학교","operational_status":"운영","office_of_edu_code":8000000,"office_of_edu_name":"충청북도교육청","latitude":36.61276064,"longitude":127.4313961},
{"school_id":"B000012870","school_name":"제천여자고등학교","school_classification":"고등학교","operational_status":"운영","office_of_edu_code":8000000,"office_of_edu_name":"충청북도교육청","latitude":37.13638054,"longitude":128.2046903},
{"school_id":"B000012889","school_name":"단양고등학교","school_classification":"고등학교","operational_status":"운영","office_of_edu_code":8000000,"office_of_edu_name":"충청북도교육청","latitude":36.97605452,"longitude":128.3665156},
{"school_id":"B000012943","school_name":"부여여자고등학교","school_classification":"고등학교","operational_status":"운영","office_of_edu_code":8140000,"office_of_edu_name":"충청남도교육청","latitude":36.28531993,"longitude":126.9152923},
{"school_id":"B000011463","school_name":"유성생명과학고등학교","school_classification":"고등학교","operational_status":"운영","office_of_edu_code":7430000,"office_of_edu_name":"대전광역시교육청","latitude":36.34823957,"longitude":127.3284216},
{"school_id":"B000012880","school_name":"청산고등학교","school_classification":"고등학교","operational_status":"운영","office_of_edu_code":8000000,"office_of_edu_name":"충청북도교육청","latitude":36.34923084,"longitude":127.7951813},
{"school_id":"B000023136","school_name":"고운고등학교","school_classification":"고등학교","operational_status":"운영","office_of_edu_code":9300000,"office_of_edu_name":"세종특별자치시교육청","latitude":36.51022904,"longitude":127.2330779},
{"school_id":"B000012881","school_name":"영동고등학교","school_classification":"고등학교","operational_status":"운영","office_of_edu_code":8000000,"office_of_edu_name":"충청북도교육청","latitude":36.16949301,"longitude":127.7884058},
{"school_id":"B000012373","school_name":"대전대신고등학교","school_classification":"고등학교","operational_status":"운영","office_of_edu_code":7430000,"office_of_edu_name":"대전광역시교육청","latitude":36.30895881,"longitude":127.3800491},
{"school_id":"B000011594","school_name":"증평공업고등학교","school_classification":"고등학교","operational_status":"운영","office_of_edu_code":8000000,"office_of_edu_name":"충청북도교육청","latitude":36.7809138,"longitude":127.5903231},
{"school_id":"B000011580","school_name":"제천상업고등학교","school_classification":"고등학교","operational_status":"운영","office_of_edu_code":8000000,"office_of_edu_name":"충청북도교육청","latitude":37.13364913,"longitude":128.2284182},
{"school_id":"B000012927","school_name":"서일고등학교","school_classification":"고등학교","operational_status":"운영","office_of_edu_code":8140000,"office_of_edu_name":"충청남도교육청","latitude":36.85930055,"longitude":126.4324993},
{"school_id":"B000012856","school_name":"청석고등학교","school_classification":"고등학교","operational_status":"운영","office_of_edu_code":8000000,"office_of_edu_name":"충청북도교육청","latitude":36.61443915,"longitude":127.5066419},
{"school_id":"B000011581","school_name":"제천디지털전자고등학교","school_classification":"고등학교","operational_status":"운영","office_of_edu_code":8000000,"office_of_edu_name":"충청북도교육청","latitude":37.14132233,"longitude":128.1156999},
{"school_id":"B000012377","school_name":"동방고등학교","school_classification":"고등학교","operational_status":"운영","office_of_edu_code":7430000,"office_of_edu_name":"대전광역시교육청","latitude":36.30033708,"longitude":127.3462432},
{"school_id":"B000011592","school_name":"진천상업고등학교","school_classification":"고등학교","operational_status":"운영","office_of_edu_code":8000000,"office_of_edu_name":"충청북도교육청","latitude":36.84776396,"longitude":127.443637},
{"school_id":"B000012888","school_name":"매괴고등학교","school_classification":"고등학교","operational_status":"운영","office_of_edu_code":8000000,"office_of_edu_name":"충청북도교육청","latitude":37.12067594,"longitude":127.6406222},
{"school_id":"B000012855","school_name":"봉명고등학교","school_classification":"고등학교","operational_status":"운영","office_of_edu_code":8000000,"office_of_edu_name":"충청북도교육청","latitude":36.65492565,"longitude":127.4552839},
{"school_id":"B000012885","school_name":"괴산고등학교","school_classification":"고등학교","operational_status":"운영","office_of_edu_code":8000000,"office_of_edu_name":"충청북도교육청","latitude":36.79657848,"longitude":127.7796338},
{"school_id":"B000026126","school_name":"양지고등학교","school_classification":"고등학교","operational_status":"운영","office_of_edu_code":9300000,"office_of_edu_name":"세종특별자치시교육청","latitude":36.50957686,"longitude":127.2692915},
{"school_id":"B000011877","school_name":"충북과학고등학교","school_classification":"고등학교","operational_status":"운영","office_of_edu_code":8000000,"office_of_edu_name":"충청북도교육청","latitude":36.58779121,"longitude":127.5691772},
{"school_id":"B000012877","school_name":"보은여자고등학교","school_classification":"고등학교","operational_status":"운영","office_of_edu_code":8000000,"office_of_edu_name":"충청북도교육청","latitude":36.49472013,"longitude":127.7161033},
{"school_id":"B000012923","school_name":"서산중앙고등학교","school_classification":"고등학교","operational_status":"운영","office_of_edu_code":8140000,"office_of_edu_name":"충청남도교육청","latitude":36.77887182,"longitude":126.471964},
{"school_id":"B000012886","school_name":"목도고등학교","school_classification":"고등학교","operational_status":"운영","office_of_edu_code":8000000,"office_of_edu_name":"충청북도교육청","latitude":36.87115391,"longitude":127.8512561},
{"school_id":"B000023219","school_name":"세종하이텍고등학교","school_classification":"고등학교","operational_status":"운영","office_of_edu_code":9300000,"office_of_edu_name":"세종특별자치시교육청","latitude":36.52678816,"longitude":127.3818926},
{"school_id":"B000011456","school_name":"대전대성여자고등학교","school_classification":"고등학교","operational_status":"운영","office_of_edu_code":7430000,"office_of_edu_name":"대전광역시교육청","latitude":36.3377246,"longitude":127.4405277},
{"school_id":"B000012354","school_name":"명석고등학교","school_classification":"고등학교","operational_status":"운영","office_of_edu_code":7430000,"office_of_edu_name":"대전광역시교육청","latitude":36.35298746,"longitude":127.4542462},
{"school_id":"B000012861","school_name":"충북여자고등학교","school_classification":"고등학교","operational_status":"운영","office_of_edu_code":8000000,"office_of_edu_name":"충청북도교육청","latitude":36.62538218,"longitude":127.4841669},
{"school_id":"B000011842","school_name":"대전과학고등학교","school_classification":"고등학교","operational_status":"운영","office_of_edu_code":7430000,"office_of_edu_name":"대전광역시교육청","latitude":36.37419466,"longitude":127.3714358},
{"school_id":"B000011617","school_name":"공동체비전고등학교","school_classification":"고등학교","operational_status":"운영","office_of_edu_code":8140000,"office_of_edu_name":"충청남도교육청","latitude":36.10022398,"longitude":126.712868},
{"school_id":"B000012868","school_name":"주덕고등학교","school_classification":"고등학교","operational_status":"운영","office_of_edu_code":8000000,"office_of_edu_name":"충청북도교육청","latitude":36.97290674,"longitude":127.7861309},
{"school_id":"B000011601","school_name":"공주생명과학고등학교","school_classification":"고등학교","operational_status":"운영","office_of_edu_code":8140000,"office_of_edu_name":"충청남도교육청","latitude":36.47346639,"longitude":127.122704},
{"school_id":"B000012379","school_name":"유성고등학교","school_classification":"고등학교","operational_status":"운영","office_of_edu_code":7430000,"office_of_edu_name":"대전광역시교육청","latitude":36.34921738,"longitude":127.334775},
{"school_id":"B000012968","school_name":"송악고등학교","school_classification":"고등학교","operational_status":"운영","office_of_edu_code":8140000,"office_of_edu_name":"충청남도교육청","latitude":36.91658244,"longitude":126.7047622},
{"school_id":"B000012852","school_name":"상당고등학교","school_classification":"고등학교","operational_status":"운영","office_of_edu_code":8000000,"office_of_edu_name":"충청북도교육청","latitude":36.60641965,"longitude":127.5086186},
{"school_id":"B000011839","school_name":"동아마이스터고등학교","school_classification":"고등학교","operational_status":"운영","office_of_edu_code":7430000,"office_of_edu_name":"대전광역시교육청","latitude":36.34466315,"longitude":127.4545998},
{"school_id":"B000012848","school_name":"산남고등학교","school_classification":"고등학교","operational_status":"운영","office_of_edu_code":8000000,"office_of_edu_name":"충청북도교육청","latitude":36.6085873,"longitude":127.4697341},
{"school_id":"B000012871","school_name":"제천제일고등학교","school_classification":"고등학교","operational_status":"운영","office_of_edu_code":8000000,"office_of_edu_name":"충청북도교육청","latitude":37.13525776,"longitude":128.2208687},
{"school_id":"B000012958","school_name":"예산예화여자고등학교","school_classification":"고등학교","operational_status":"운영","office_of_edu_code":8140000,"office_of_edu_name":"충청남도교육청","latitude":36.68005465,"longitude":126.8390082},
{"school_id":"B000012356","school_name":"우송고등학교","school_classification":"고등학교","operational_status":"운영","office_of_edu_code":7430000,"office_of_edu_name":"대전광역시교육청","latitude":36.33562875,"longitude":127.4428489},
{"school_id":"B000012853","school_name":"서원고등학교","school_classification":"고등학교","operational_status":"운영","office_of_edu_code":8000000,"office_of_edu_name":"충청북도교육청","latitude":36.62008178,"longitude":127.4410388},
{"school_id":"B000011574","school_name":"청주여자상업고등학교","school_classification":"고등학교","operational_status":"운영","office_of_edu_code":8000000,"office_of_edu_name":"충청북도교육청","latitude":36.62595797,"longitude":127.4839083},
{"school_id":"B000026936","school_name":"충남인터넷고등학교","school_classification":"고등학교","operational_status":"운영","office_of_edu_code":8140000,"office_of_edu_name":"충청남도교육청","latitude":36.2066365,"longitude":127.1893086},
{"school_id":"B000013536","school_name":"충남고등학교","school_classification":"고등학교","operational_status":"운영","office_of_edu_code":7430000,"office_of_edu_name":"대전광역시교육청","latitude":36.34997951,"longitude":127.3942722},
{"school_id":"B000011620","school_name":"예산전자공업고등학교","school_classification":"고등학교","operational_status":"운영","office_of_edu_code":8140000,"office_of_edu_name":"충청남도교육청","latitude":36.7137605,"longitude":126.8373857},
{"school_id":"B000011577","school_name":"한림디자인고등학교","school_classification":"고등학교","operational_status":"운영","office_of_edu_code":8000000,"office_of_edu_name":"충청북도교육청","latitude":36.98004113,"longitude":127.9390387},
{"school_id":"B000011462","school_name":"대전전자디자인고등학교","school_classification":"고등학교","operational_status":"운영","office_of_edu_code":7430000,"office_of_edu_name":"대전광역시교육청","latitude":36.4129835,"longitude":127.3770167},
{"school_id":"B000012936","school_name":"금산고등학교","school_classification":"고등학교","operational_status":"운영","office_of_edu_code":8140000,"office_of_edu_name":"충청남도교육청","latitude":36.10630313,"longitude":127.4943581},
{"school_id":"B000012378","school_name":"대전제일고등학교","school_classification":"고등학교","operational_status":"운영","office_of_edu_code":7430000,"office_of_edu_name":"대전광역시교육청","latitude":36.3133147,"longitude":127.3723589},
{"school_id":"B000012876","school_name":"오창고등학교","school_classification":"고등학교","operational_status":"운영","office_of_edu_code":8000000,"office_of_edu_name":"충청북도교육청","latitude":36.7341991,"longitude":127.4616514},
{"school_id":"B000022970","school_name":"논산고등학교","school_classification":"고등학교","operational_status":"운영","office_of_edu_code":8140000,"office_of_edu_name":"충청남도교육청","latitude":36.1816201,"longitude":127.0980207},
{"school_id":"B000022939","school_name":"강경고등학교","school_classification":"고등학교","operational_status":"운영","office_of_edu_code":8140000,"office_of_edu_name":"충청남도교육청","latitude":36.1596285,"longitude":127.0198871},
{"school_id":"B000011603","school_name":"대천여자상업고등학교","school_classification":"고등학교","operational_status":"운영","office_of_edu_code":8140000,"office_of_edu_name":"충청남도교육청","latitude":36.33215727,"longitude":126.579488},
{"school_id":"B000011570","school_name":"충북상업정보고등학교","school_classification":"고등학교","operational_status":"운영","office_of_edu_code":8000000,"office_of_edu_name":"충청북도교육청","latitude":36.66459021,"longitude":127.4792673},
{"school_id":"B000011875","school_name":"청주외국어고등학교","school_classification":"고등학교","operational_status":"운영","office_of_edu_code":8000000,"office_of_edu_name":"충청북도교육청","latitude":36.6255022,"longitude":127.4444905},
{"school_id":"B000012922","school_name":"서산여자고등학교","school_classification":"고등학교","operational_status":"운영","office_of_edu_code":8140000,"office_of_edu_name":"충청남도교육청","latitude":36.77032528,"longitude":126.4676572},
{"school_id":"B000011461","school_name":"대덕소프트웨어마이스터고등학교","school_classification":"고등학교","operational_status":"운영","office_of_edu_code":7430000,"office_of_edu_name":"대전광역시교육청","latitude":36.39202633,"longitude":127.3630148},
{"school_id":"B000023002","school_name":"논산여자고등학교","school_classification":"고등학교","operational_status":"운영","office_of_edu_code":8140000,"office_of_edu_name":"충청남도교육청","latitude":36.19559346,"longitude":127.092422},
{"school_id":"B000012954","school_name":"한국K-POP고등학교","school_classification":"고등학교","operational_status":"운영","office_of_edu_code":8140000,"office_of_edu_name":"충청남도교육청","latitude":36.50793192,"longitude":126.6219135},
{"school_id":"B000012361","school_name":"대전성모여자고등학교","school_classification":"고등학교","operational_status":"운영","office_of_edu_code":7430000,"office_of_edu_name":"대전광역시교육청","latitude":36.32246468,"longitude":127.4182965},
{"school_id":"B000012941","school_name":"세종대성고등학교","school_classification":"고등학교","operational_status":"운영","office_of_edu_code":9300000,"office_of_edu_name":"세종특별자치시교육청","latitude":36.49713137,"longitude":127.2546814},
{"school_id":"B000012864","school_name":"충주여자고등학교","school_classification":"고등학교","operational_status":"운영","office_of_edu_code":8000000,"office_of_edu_name":"충청북도교육청","latitude":36.96093611,"longitude":127.9381598},
{"school_id":"B000011585","school_name":"양업고등학교","school_classification":"고등학교","operational_status":"운영","office_of_edu_code":8000000,"office_of_edu_name":"충청북도교육청","latitude":36.67137226,"longitude":127.3473567},
{"school_id":"B000012385","school_name":"유성여자고등학교","school_classification":"고등학교","operational_status":"운영","office_of_edu_code":7430000,"office_of_edu_name":"대전광역시교육청","latitude":36.38458956,"longitude":127.3289254},
{"school_id":"B000012912","school_name":"대천고등학교","school_classification":"고등학교","operational_status":"운영","office_of_edu_code":8140000,"office_of_edu_name":"충청남도교육청","latitude":36.36580643,"longitude":126.6049566},
{"school_id":"B000013533","school_name":"대전동신과학고등학교","school_classification":"고등학교","operational_status":"운영","office_of_edu_code":7430000,"office_of_edu_name":"대전광역시교육청","latitude":36.33285837,"longitude":127.4743002},
{"school_id":"B000011455","school_name":"계룡디지텍고등학교","school_classification":"고등학교","operational_status":"운영","office_of_edu_code":7430000,"office_of_edu_name":"대전광역시교육청","latitude":36.33762549,"longitude":127.4344749},
{"school_id":"B000012873","school_name":"오송고등학교","school_classification":"고등학교","operational_status":"운영","office_of_edu_code":8000000,"office_of_edu_name":"충청북도교육청","latitude":36.62962002,"longitude":127.3259846},
{"school_id":"B000011464","school_name":"대전공업고등학교","school_classification":"고등학교","operational_status":"운영","office_of_edu_code":7430000,"office_of_edu_name":"대전광역시교육청","latitude":36.29751392,"longitude":127.3199445},
{"school_id":"B000011604","school_name":"충남해양과학고등학교","school_classification":"고등학교","operational_status":"운영","office_of_edu_code":8140000,"office_of_edu_name":"충청남도교육청","latitude":36.31849307,"longitude":126.5141199},
{"school_id":"B000011843","school_name":"대전예술고등학교","school_classification":"고등학교","operational_status":"운영","office_of_edu_code":7430000,"office_of_edu_name":"대전광역시교육청","latitude":36.34695405,"longitude":127.33356},
{"school_id":"B000012866","school_name":"충원고등학교","school_classification":"고등학교","operational_status":"운영","office_of_edu_code":8000000,"office_of_edu_name":"충청북도교육청","latitude":37.08806988,"longitude":127.910885},
{"school_id":"B000013560","school_name":"대산고등학교","school_classification":"고등학교","operational_status":"운영","office_of_edu_code":8140000,"office_of_edu_name":"충청남도교육청","latitude":36.9363905,"longitude":126.4383891},
{"school_id":"B000011618","school_name":"충남디자인예술고등학교","school_classification":"고등학교","operational_status":"운영","office_of_edu_code":8140000,"office_of_edu_name":"충청남도교육청","latitude":36.08934788,"longitude":126.8017061},
{"school_id":"B000011882","school_name":"충남과학고등학교","school_classification":"고등학교","operational_status":"운영","office_of_edu_code":8140000,"office_of_edu_name":"충청남도교육청","latitude":36.42737971,"longitude":127.2187102},
{"school_id":"B000011587","school_name":"충북생명산업고등학교","school_classification":"고등학교","operational_status":"운영","office_of_edu_code":8000000,"office_of_edu_name":"충청북도교육청","latitude":36.49099549,"longitude":127.7154662},
{"school_id":"B000012372","school_name":"대전복수고등학교","school_classification":"고등학교","operational_status":"운영","office_of_edu_code":7430000,"office_of_edu_name":"대전광역시교육청","latitude":36.30377161,"longitude":127.3735857},
{"school_id":"B000011616","school_name":"서천여자정보고등학교","school_classification":"고등학교","operational_status":"운영","office_of_edu_code":8140000,"office_of_edu_name":"충청남도교육청","latitude":36.08312752,"longitude":126.6993362},
{"school_id":"B000012368","school_name":"대전구봉고등학교","school_classification":"고등학교","operational_status":"운영","office_of_edu_code":7430000,"office_of_edu_name":"대전광역시교육청","latitude":36.29557493,"longitude":127.3310026},
{"school_id":"B000011619","school_name":"홍성공업고등학교","school_classification":"고등학교","operational_status":"운영","office_of_edu_code":8140000,"office_of_edu_name":"충청남도교육청","latitude":36.52923567,"longitude":126.5478721},
{"school_id":"B000012914","school_name":"웅천고등학교","school_classification":"고등학교","operational_status":"운영","office_of_edu_code":8140000,"office_of_edu_name":"충청남도교육청","latitude":36.23446791,"longitude":126.6041447},
{"school_id":"B000012925","school_name":"서산고등학교","school_classification":"고등학교","operational_status":"운영","office_of_edu_code":8140000,"office_of_edu_name":"충청남도교육청","latitude":36.71554973,"longitude":126.5460725},
{"school_id":"B000011459","school_name":"대전신일여자고등학교","school_classification":"고등학교","operational_status":"운영","office_of_edu_code":7430000,"office_of_edu_name":"대전광역시교육청","latitude":36.30866941,"longitude":127.4334058},
{"school_id":"B000012906","school_name":"공주대학교사범대학부설고등학교","school_classification":"고등학교","operational_status":"운영","office_of_edu_code":8140000,"office_of_edu_name":"충청남도교육청","latitude":36.45276665,"longitude":127.1197907},
{"school_id":"B000012384","school_name":"대전전민고등학교","school_classification":"고등학교","operational_status":"운영","office_of_edu_code":7430000,"office_of_edu_name":"대전광역시교육청","latitude":36.39833683,"longitude":127.3983327},
{"school_id":"B000011591","school_name":"학산고등학교","school_classification":"고등학교","operational_status":"운영","office_of_edu_code":8000000,"office_of_edu_name":"충청북도교육청","latitude":36.10090506,"longitude":127.6820366},
{"school_id":"B000012926","school_name":"부석고등학교","school_classification":"고등학교","operational_status":"운영","office_of_edu_code":8140000,"office_of_edu_name":"충청남도교육청","latitude":36.71916922,"longitude":126.4011757},
{"school_id":"B000023140","school_name":"종촌고등학교","school_classification":"고등학교","operational_status":"운영","office_of_edu_code":9300000,"office_of_edu_name":"세종특별자치시교육청","latitude":36.50463068,"longitude":127.2458378},
{"school_id":"B000012959","school_name":"삽교고등학교","school_classification":"고등학교","operational_status":"운영","office_of_edu_code":8140000,"office_of_edu_name":"충청남도교육청","latitude":36.68803138,"longitude":126.747264},
{"school_id":"B000011881","school_name":"공주마이스터고등학교","school_classification":"고등학교","operational_status":"운영","office_of_edu_code":8140000,"office_of_edu_name":"충청남도교육청","latitude":36.54765379,"longitude":126.9482472},
{"school_id":"B000012966","school_name":"당진고등학교","school_classification":"고등학교","operational_status":"운영","office_of_edu_code":8140000,"office_of_edu_name":"충청남도교육청","latitude":36.89181424,"longitude":126.6242637},
{"school_id":"B000012387","school_name":"신탄진고등학교","school_classification":"고등학교","operational_status":"운영","office_of_edu_code":7430000,"office_of_edu_name":"대전광역시교육청","latitude":36.44970668,"longitude":127.4359505},
{"school_id":"B000011602","school_name":"공주정보고등학교","school_classification":"고등학교","operational_status":"운영","office_of_edu_code":8140000,"office_of_edu_name":"충청남도교육청","latitude":36.48557283,"longitude":127.1574896},
{"school_id":"B000012955","school_name":"갈산고등학교","school_classification":"고등학교","operational_status":"운영","office_of_edu_code":8140000,"office_of_edu_name":"충청남도교육청","latitude":36.60486517,"longitude":126.5478105},
{"school_id":"B000013539","school_name":"대전송촌고등학교","school_classification":"고등학교","operational_status":"운영","office_of_edu_code":7430000,"office_of_edu_name":"대전광역시교육청","latitude":36.36346301,"longitude":127.4459274},
{"school_id":"B000012947","school_name":"청양고등학교","school_classification":"고등학교","operational_status":"운영","office_of_edu_code":8140000,"office_of_edu_name":"충청남도교육청","latitude":36.45358604,"longitude":126.7979573},
{"school_id":"B000012908","school_name":"공주여자고등학교","school_classification":"고등학교","operational_status":"운영","office_of_edu_code":8140000,"office_of_edu_name":"충청남도교육청","latitude":36.44004369,"longitude":127.1202748},
{"school_id":"B000023001","school_name":"충남체육고등학교","school_classification":"고등학교","operational_status":"운영","office_of_edu_code":8140000,"office_of_edu_name":"충청남도교육청","latitude":36.19256093,"longitude":127.1040311},
{"school_id":"B000023146","school_name":"반곡고등학교","school_classification":"고등학교","operational_status":"운영","office_of_edu_code":9300000,"office_of_edu_name":"세종특별자치시교육청","latitude":36.49675815,"longitude":127.3166201},
{"school_id":"B000011593","school_name":"한국호텔관광고등학교","school_classification":"고등학교","operational_status":"운영","office_of_edu_code":8000000,"office_of_edu_name":"충청북도교육청","latitude":36.92655735,"longitude":128.3385084},
{"school_id":"B000012921","school_name":"아산전자기계고등학교","school_classification":"고등학교","operational_status":"운영","office_of_edu_code":8140000,"office_of_edu_name":"충청남도교육청","latitude":36.92907586,"longitude":127.0436616},
{"school_id":"B000012910","school_name":"공주영명고등학교","school_classification":"고등학교","operational_status":"운영","office_of_edu_code":8140000,"office_of_edu_name":"충청남도교육청","latitude":36.4519602,"longitude":127.1278725},
{"school_id":"B000012887","school_name":"음성고등학교","school_classification":"고등학교","operational_status":"운영","office_of_edu_code":8000000,"office_of_edu_name":"충청북도교육청","latitude":36.93377561,"longitude":127.6862476},
{"school_id":"B000011578","school_name":"충주상업고등학교","school_classification":"고등학교","operational_status":"운영","office_of_edu_code":8000000,"office_of_edu_name":"충청북도교육청","latitude":36.94672185,"longitude":127.937922},
{"school_id":"B000012937","school_name":"금산여자고등학교","school_classification":"고등학교","operational_status":"운영","office_of_edu_code":8140000,"office_of_edu_name":"충청남도교육청","latitude":36.10475789,"longitude":127.4834553},
{"school_id":"B000024471","school_name":"홍성고등학교","school_classification":"고등학교","operational_status":"운영","office_of_edu_code":8140000,"office_of_edu_name":"충청남도교육청","latitude":36.650043,"longitude":126.6726491},
{"school_id":"B000012382","school_name":"대덕고등학교","school_classification":"고등학교","operational_status":"운영","office_of_edu_code":7430000,"office_of_edu_name":"대전광역시교육청","latitude":36.38757339,"longitude":127.3816844},
{"school_id":"B000012970","school_name":"신평고등학교","school_classification":"고등학교","operational_status":"운영","office_of_edu_code":8140000,"office_of_edu_name":"충청남도교육청","latitude":36.8830527,"longitude":126.7615205},
{"school_id":"B000012370","school_name":"대전괴정고등학교","school_classification":"고등학교","operational_status":"운영","office_of_edu_code":7430000,"office_of_edu_name":"대전광역시교육청","latitude":36.34040306,"longitude":127.3788431},
{"school_id":"B000022971","school_name":"논산여자상업고등학교","school_classification":"고등학교","operational_status":"운영","office_of_edu_code":8140000,"office_of_edu_name":"충청남도교육청","latitude":36.18482148,"longitude":127.095938},
{"school_id":"B000012957","school_name":"예산고등학교","school_classification":"고등학교","operational_status":"운영","office_of_edu_code":8140000,"office_of_edu_name":"충청남도교육청","latitude":36.67989903,"longitude":126.8374837},
{"school_id":"B000012907","school_name":"공주고등학교","school_classification":"고등학교","operational_status":"운영","office_of_edu_code":8140000,"office_of_edu_name":"충청남도교육청","latitude":36.44805858,"longitude":127.1233573},
{"school_id":"B000011606","school_name":"서산공업고등학교","school_classification":"고등학교","operational_status":"운영","office_of_edu_code":8140000,"office_of_edu_name":"충청남도교육청","latitude":36.80931536,"longitude":126.5878508},
{"school_id":"B000013534","school_name":"대전고등학교","school_classification":"고등학교","operational_status":"운영","office_of_edu_code":7430000,"office_of_edu_name":"대전광역시교육청","latitude":36.32243054,"longitude":127.423386},
{"school_id":"B000022955","school_name":"논산대건고등학교","school_classification":"고등학교","operational_status":"운영","office_of_edu_code":8140000,"office_of_edu_name":"충청남도교육청","latitude":36.18480394,"longitude":127.0784383},
{"school_id":"B000011605","school_name":"주산산업고등학교","school_classification":"고등학교","operational_status":"운영","office_of_edu_code":8140000,"office_of_edu_name":"충청남도교육청","latitude":36.19860758,"longitude":126.6363604},
{"school_id":"B000012918","school_name":"아산고등학교","school_classification":"고등학교","operational_status":"운영","office_of_edu_code":8140000,"office_of_edu_name":"충청남도교육청","latitude":36.78906056,"longitude":127.0046035},
{"school_id":"B000011612","school_name":"부여정보고등학교","school_classification":"고등학교","operational_status":"운영","office_of_edu_code":8140000,"office_of_edu_name":"충청남도교육청","latitude":36.27731649,"longitude":126.8817737},
{"school_id":"B000011588","school_name":"충북산업과학고등학교","school_classification":"고등학교","operational_status":"운영","office_of_edu_code":8000000,"office_of_edu_name":"충청북도교육청","latitude":36.30947631,"longitude":127.5763371},
{"school_id":"B000011568","school_name":"청주공업고등학교","school_classification":"고등학교","operational_status":"운영","office_of_edu_code":8000000,"office_of_edu_name":"충청북도교육청","latitude":36.6376457,"longitude":127.4856352},
{"school_id":"B000012366","school_name":"한밭고등학교","school_classification":"고등학교","operational_status":"운영","office_of_edu_code":7430000,"office_of_edu_name":"대전광역시교육청","latitude":36.34649685,"longitude":127.3643986},
{"school_id":"B000012357","school_name":"충남여자고등학교","school_classification":"고등학교","operational_status":"운영","office_of_edu_code":7430000,"office_of_edu_name":"대전광역시교육청","latitude":36.32974636,"longitude":127.4112877},
{"school_id":"B000023265","school_name":"서전고등학교","school_classification":"고등학교","operational_status":"운영","office_of_edu_code":8000000,"office_of_edu_name":"충청북도교육청","latitude":36.89948149,"longitude":127.5259529},
{"school_id":"B000012924","school_name":"서령고등학교","school_classification":"고등학교","operational_status":"운영","office_of_edu_code":8140000,"office_of_edu_name":"충청남도교육청","latitude":36.79480039,"longitude":126.4581655},
{"school_id":"B000025525","school_name":"광혜원고등학교","school_classification":"고등학교","operational_status":"운영","office_of_edu_code":8000000,"office_of_edu_name":"충청북도교육청","latitude":36.99429574,"longitude":127.4280498},
{"school_id":"B000011840","school_name":"대전외국어고등학교","school_classification":"고등학교","operational_status":"운영","office_of_edu_code":7430000,"office_of_edu_name":"대전광역시교육청","latitude":36.33658566,"longitude":127.3656242},
{"school_id":"B000012909","school_name":"공주금성여자고등학교","school_classification":"고등학교","operational_status":"운영","office_of_edu_code":8140000,"office_of_edu_name":"충청남도교육청","latitude":36.45792388,"longitude":127.1126169},
{"school_id":"B000011841","school_name":"대전체육고등학교","school_classification":"고등학교","operational_status":"운영","office_of_edu_code":7430000,"office_of_edu_name":"대전광역시교육청","latitude":36.33651309,"longitude":127.3406536},
{"school_id":"B000023096","school_name":"배방고등학교","school_classification":"고등학교","operational_status":"운영","office_of_edu_code":8140000,"office_of_edu_name":"충청남도교육청","latitude":36.76914725,"longitude":127.0664537},
{"school_id":"B000023139","school_name":"아름고등학교","school_classification":"고등학교","operational_status":"운영","office_of_edu_code":9300000,"office_of_edu_name":"세종특별자치시교육청","latitude":36.5130392,"longitude":127.2452501},
{"school_id":"B000012362","school_name":"청란여자고등학교","school_classification":"고등학교","operational_status":"운영","office_of_edu_code":7430000,"office_of_edu_name":"대전광역시교육청","latitude":36.31073792,"longitude":127.4295277},
{"school_id":"B000012900","school_name":"천안월봉고등학교","school_classification":"고등학교","operational_status":"운영","office_of_edu_code":8140000,"office_of_edu_name":"충청남도교육청","latitude":36.80456188,"longitude":127.1119636},
{"school_id":"B000012946","school_name":"장항고등학교","school_classification":"고등학교","operational_status":"운영","office_of_edu_code":8140000,"office_of_edu_name":"충청남도교육청","latitude":36.01638039,"longitude":126.7066945},
{"school_id":"B000012944","school_name":"서천고등학교","school_classification":"고등학교","operational_status":"운영","office_of_edu_code":8140000,"office_of_edu_name":"충청남도교육청","latitude":36.08673881,"longitude":126.6902854},
{"school_id":"B000023202","school_name":"대전도안고등학교","school_classification":"고등학교","operational_status":"운영","office_of_edu_code":7430000,"office_of_edu_name":"대전광역시교육청","latitude":36.33692213,"longitude":127.3373195},
{"school_id":"B000011458","school_name":"대전국제통상고등학교","school_classification":"고등학교","operational_status":"운영","office_of_edu_code":7430000,"office_of_edu_name":"대전광역시교육청","latitude":36.31386261,"longitude":127.4075368},
{"school_id":"B000012851","school_name":"금천고등학교","school_classification":"고등학교","operational_status":"운영","office_of_edu_code":8000000,"office_of_edu_name":"충청북도교육청","latitude":36.62779716,"longitude":127.5119428},
{"school_id":"B000012358","school_name":"대전동산고등학교","school_classification":"고등학교","operational_status":"운영","office_of_edu_code":7430000,"office_of_edu_name":"대전광역시교육청","latitude":36.31611842,"longitude":127.4044918},
{"school_id":"B000012369","school_name":"대전관저고등학교","school_classification":"고등학교","operational_status":"운영","office_of_edu_code":7430000,"office_of_edu_name":"대전광역시교육청","latitude":36.31080711,"longitude":127.3377631},
{"school_id":"B000011457","school_name":"충남기계공업고등학교","school_classification":"고등학교","operational_status":"운영","office_of_edu_code":7430000,"office_of_edu_name":"대전광역시교육청","latitude":36.31199421,"longitude":127.4035731},
{"school_id":"B000012969","school_name":"서야고등학교","school_classification":"고등학교","operational_status":"운영","office_of_edu_code":8140000,"office_of_edu_name":"충청남도교육청","latitude":36.79274595,"longitude":126.7877866},
{"school_id":"B000022979","school_name":"건양대학교병설건양고등학교","school_classification":"고등학교","operational_status":"운영","office_of_edu_code":8140000,"office_of_edu_name":"충청남도교육청","latitude":36.14155764,"longitude":127.2343403},
{"school_id":"B000011465","school_name":"대전생활과학고등학교","school_classification":"고등학교","operational_status":"운영","office_of_edu_code":7430000,"office_of_edu_name":"대전광역시교육청","latitude":36.3498313,"longitude":127.4230626},
{"school_id":"B000012847","school_name":"청주여자고등학교","school_classification":"고등학교","operational_status":"운영","office_of_edu_code":8000000,"office_of_edu_name":"충청북도교육청","latitude":36.66774008,"longitude":127.489702},
{"school_id":"B000012953","school_name":"서해삼육고등학교","school_classification":"고등학교","operational_status":"운영","office_of_edu_code":8140000,"office_of_edu_name":"충청남도교육청","latitude":36.50662283,"longitude":126.6269267},
{"school_id":"B000012939","school_name":"세종여자고등학교","school_classification":"고등학교","operational_status":"운영","office_of_edu_code":9300000,"office_of_edu_name":"세종특별자치시교육청","latitude":36.60790871,"longitude":127.2879076},
{"school_id":"B000012942","school_name":"부여고등학교","school_classification":"고등학교","operational_status":"운영","office_of_edu_code":8140000,"office_of_edu_name":"충청남도교육청","latitude":36.27386362,"longitude":126.9230728},
{"school_id":"B000022969","school_name":"논산공업고등학교","school_classification":"고등학교","operational_status":"운영","office_of_edu_code":8140000,"office_of_edu_name":"충청남도교육청","latitude":36.19821471,"longitude":127.0876105},
{"school_id":"B000011610","school_name":"금산산업고등학교","school_classification":"고등학교","operational_status":"운영","office_of_edu_code":8140000,"office_of_edu_name":"충청남도교육청","latitude":36.10440219,"longitude":127.4793939},
{"school_id":"B000012860","school_name":"일신여자고등학교","school_classification":"고등학교","operational_status":"운영","office_of_edu_code":8000000,"office_of_edu_name":"충청북도교육청","latitude":36.62692783,"longitude":127.4968969},
{"school_id":"B000012363","school_name":"호수돈여자고등학교","school_classification":"고등학교","operational_status":"운영","office_of_edu_code":7430000,"office_of_edu_name":"대전광역시교육청","latitude":36.32671701,"longitude":127.4144851},
{"school_id":"B000026128","school_name":"두루고등학교","school_classification":"고등학교","operational_status":"운영","office_of_edu_code":9300000,"office_of_edu_name":"세종특별자치시교육청","latitude":36.51626999,"longitude":127.2273942},
{"school_id":"B000012945","school_name":"서천여자고등학교","school_classification":"고등학교","operational_status":"운영","office_of_edu_code":8140000,"office_of_edu_name":"충청남도교육청","latitude":36.08139458,"longitude":126.69382},
{"school_id":"B000011621","school_name":"당진정보고등학교","school_classification":"고등학교","operational_status":"운영","office_of_edu_code":8140000,"office_of_edu_name":"충청남도교육청","latitude":36.89207275,"longitude":126.6246862},
{"school_id":"B000023144","school_name":"보람고등학교","school_classification":"고등학교","operational_status":"운영","office_of_edu_code":9300000,"office_of_edu_name":"세종특별자치시교육청","latitude":36.47764107,"longitude":127.2840392},
{"school_id":"B000013538","school_name":"대전노은고등학교","school_classification":"고등학교","operational_status":"운영","office_of_edu_code":7430000,"office_of_edu_name":"대전광역시교육청","latitude":36.36939669,"longitude":127.3232157},
{"school_id":"B000012905","school_name":"성환고등학교","school_classification":"고등학교","operational_status":"운영","office_of_edu_code":8140000,"office_of_edu_name":"충청남도교육청","latitude":36.9238205,"longitude":127.1155928},
{"school_id":"B000011596","school_name":"천안공업고등학교","school_classification":"고등학교","operational_status":"운영","office_of_edu_code":8140000,"office_of_edu_name":"충청남도교육청","latitude":36.81484693,"longitude":127.1556508},
{"school_id":"B000011615","school_name":"장항공업고등학교","school_classification":"고등학교","operational_status":"운영","office_of_edu_code":8140000,"office_of_edu_name":"충청남도교육청","latitude":36.01394132,"longitude":126.6856731},
{"school_id":"B000012904","school_name":"목천고등학교","school_classification":"고등학교","operational_status":"운영","office_of_edu_code":8140000,"office_of_edu_name":"충청남도교육청","latitude":36.78283528,"longitude":127.2318896},
{"school_id":"B000011880","school_name":"충남예술고등학교","school_classification":"고등학교","operational_status":"운영","office_of_edu_code":8140000,"office_of_edu_name":"충청남도교육청","latitude":36.86844127,"longitude":127.204377},
{"school_id":"B000022974","school_name":"쌘뽈여자고등학교","school_classification":"고등학교","operational_status":"운영","office_of_edu_code":8140000,"office_of_edu_name":"충청남도교육청","latitude":36.2004738,"longitude":127.0854946},
{"school_id":"B000012901","school_name":"천안고등학교","school_classification":"고등학교","operational_status":"운영","office_of_edu_code":8140000,"office_of_edu_name":"충청남도교육청","latitude":36.80941687,"longitude":127.1343416},
{"school_id":"B000012903","school_name":"북일여자고등학교","school_classification":"고등학교","operational_status":"운영","office_of_edu_code":8140000,"office_of_edu_name":"충청남도교육청","latitude":36.83197659,"longitude":127.1591924},
{"school_id":"B000011613","school_name":"한국식품마이스터고등학교","school_classification":"고등학교","operational_status":"운영","office_of_edu_code":8140000,"office_of_edu_name":"충청남도교육청","latitude":36.21603727,"longitude":126.7663663},
{"school_id":"B000023145","school_name":"소담고등학교","school_classification":"고등학교","operational_status":"운영","office_of_edu_code":9300000,"office_of_edu_name":"세종특별자치시교육청","latitude":36.48250499,"longitude":127.3028199},
{"school_id":"B000012858","school_name":"세광고등학교","school_classification":"고등학교","operational_status":"운영","office_of_edu_code":8000000,"office_of_edu_name":"충청북도교육청","latitude":36.6032833,"longitude":127.4529213},
{"school_id":"B000023107","school_name":"충남삼성고등학교","school_classification":"고등학교","operational_status":"운영","office_of_edu_code":8140000,"office_of_edu_name":"충청남도교육청","latitude":36.80653054,"longitude":127.0572398},
{"school_id":"B000011611","school_name":"금산하이텍고등학교","school_classification":"고등학교","operational_status":"운영","office_of_edu_code":8140000,"office_of_edu_name":"충청남도교육청","latitude":36.14234919,"longitude":127.3738609},
{"school_id":"B000012381","school_name":"대전반석고등학교","school_classification":"고등학교","operational_status":"운영","office_of_edu_code":7430000,"office_of_edu_name":"대전광역시교육청","latitude":36.38691878,"longitude":127.3135242},
{"school_id":"B000012893","school_name":"천안여자고등학교","school_classification":"고등학교","operational_status":"운영","office_of_edu_code":8140000,"office_of_edu_name":"충청남도교육청","latitude":36.77872802,"longitude":127.1692327},
{"school_id":"B000012898","school_name":"천안오성고등학교","school_classification":"고등학교","operational_status":"운영","office_of_edu_code":8140000,"office_of_edu_name":"충청남도교육청","latitude":36.8415273,"longitude":127.142135},
{"school_id":"B000012967","school_name":"호서고등학교","school_classification":"고등학교","operational_status":"운영","office_of_edu_code":8140000,"office_of_edu_name":"충청남도교육청","latitude":36.89972495,"longitude":126.639123},
{"school_id":"B000012364","school_name":"대전한빛고등학교","school_classification":"고등학교","operational_status":"운영","office_of_edu_code":7430000,"office_of_edu_name":"대전광역시교육청","latitude":36.28124455,"longitude":127.3733529},
{"school_id":"B000013535","school_name":"대전대성고등학교","school_classification":"고등학교","operational_status":"운영","office_of_edu_code":7430000,"office_of_edu_name":"대전광역시교육청","latitude":36.331971,"longitude":127.4070779},
{"school_id":"B000011460","school_name":"대전여자상업고등학교","school_classification":"고등학교","operational_status":"운영","office_of_edu_code":7430000,"office_of_edu_name":"대전광역시교육청","latitude":36.3338799,"longitude":127.4216785},
{"school_id":"B000012952","school_name":"홍주고등학교","school_classification":"고등학교","operational_status":"운영","office_of_edu_code":8140000,"office_of_edu_name":"충청남도교육청","latitude":36.5927793,"longitude":126.6625916},
{"school_id":"B000013557","school_name":"청원고등학교","school_classification":"고등학교","operational_status":"운영","office_of_edu_code":8000000,"office_of_edu_name":"충청북도교육청","latitude":36.71412973,"longitude":127.4150059},
{"school_id":"B000011614","school_name":"부여전자고등학교","school_classification":"고등학교","operational_status":"운영","office_of_edu_code":8140000,"office_of_edu_name":"충청남도교육청","latitude":36.17627488,"longitude":126.8917865},
{"school_id":"B000012948","school_name":"정산고등학교","school_classification":"고등학교","operational_status":"운영","office_of_edu_code":8140000,"office_of_edu_name":"충청남도교육청","latitude":36.41385157,"longitude":126.9502066},
{"school_id":"B000012360","school_name":"대전중앙고등학교","school_classification":"고등학교","operational_status":"운영","office_of_edu_code":7430000,"office_of_edu_name":"대전광역시교육청","latitude":36.33842277,"longitude":127.4147891},
{"school_id":"B000012359","school_name":"남대전고등학교","school_classification":"고등학교","operational_status":"운영","office_of_edu_code":7430000,"office_of_edu_name":"대전광역시교육청","latitude":36.31074837,"longitude":127.4278195},
{"school_id":"B000013559","school_name":"북일고등학교","school_classification":"고등학교","operational_status":"운영","office_of_edu_code":8140000,"office_of_edu_name":"충청남도교육청","latitude":36.83200106,"longitude":127.1585854},
{"school_id":"B000023155","school_name":"세종예술고등학교","school_classification":"고등학교","operational_status":"운영","office_of_edu_code":9300000,"office_of_edu_name":"세종특별자치시교육청","latitude":36.4904537,"longitude":127.2693275},
{"school_id":"B000012375","school_name":"서일고등학교","school_classification":"고등학교","operational_status":"운영","office_of_edu_code":7430000,"office_of_edu_name":"대전광역시교육청","latitude":36.29332636,"longitude":127.3236362},
{"school_id":"B000012376","school_name":"서일여자고등학교","school_classification":"고등학교","operational_status":"운영","office_of_edu_code":7430000,"office_of_edu_name":"대전광역시교육청","latitude":36.29429961,"longitude":127.3235457},
{"school_id":"B000012846","school_name":"충북고등학교","school_classification":"고등학교","operational_status":"운영","office_of_edu_code":8000000,"office_of_edu_name":"충청북도교육청","latitude":36.60854214,"longitude":127.4817144},
{"school_id":"B000012964","school_name":"만리포고등학교","school_classification":"고등학교","operational_status":"운영","office_of_edu_code":8140000,"office_of_edu_name":"충청남도교육청","latitude":36.76035844,"longitude":126.1908228},
{"school_id":"B000012916","school_name":"온양여자고등학교","school_classification":"고등학교","operational_status":"운영","office_of_edu_code":8140000,"office_of_edu_name":"충청남도교육청","latitude":36.77844834,"longitude":127.0135701},
{"school_id":"B000012857","school_name":"청주신흥고등학교","school_classification":"고등학교","operational_status":"운영","office_of_edu_code":8000000,"office_of_edu_name":"충청북도교육청","latitude":36.66965116,"longitude":127.4965194},
{"school_id":"B000012862","school_name":"청주대성고등학교","school_classification":"고등학교","operational_status":"운영","office_of_edu_code":8000000,"office_of_edu_name":"충청북도교육청","latitude":36.65378546,"longitude":127.4906593},
{"school_id":"B000012919","school_name":"온양한올고등학교","school_classification":"고등학교","operational_status":"운영","office_of_edu_code":8140000,"office_of_edu_name":"충청남도교육청","latitude":36.78855105,"longitude":127.0105357},
{"school_id":"B000012902","school_name":"복자여자고등학교","school_classification":"고등학교","operational_status":"운영","office_of_edu_code":8140000,"office_of_edu_name":"충청남도교육청","latitude":36.81554363,"longitude":127.1523399},
{"school_id":"B000012891","school_name":"형석고등학교","school_classification":"고등학교","operational_status":"운영","office_of_edu_code":8000000,"office_of_edu_name":"충청북도교육청","latitude":36.79378517,"longitude":127.5925775},
{"school_id":"B000012915","school_name":"온양고등학교","school_classification":"고등학교","operational_status":"운영","office_of_edu_code":8140000,"office_of_edu_name":"충청남도교육청","latitude":36.78370153,"longitude":126.9951754},
{"school_id":"B000012913","school_name":"대천여자고등학교","school_classification":"고등학교","operational_status":"운영","office_of_edu_code":8140000,"office_of_edu_name":"충청남도교육청","latitude":36.35975001,"longitude":126.5849396},
{"school_id":"B000012920","school_name":"설화고등학교","school_classification":"고등학교","operational_status":"운영","office_of_edu_code":8140000,"office_of_edu_name":"충청남도교육청","latitude":36.78803293,"longitude":127.0922409},
{"school_id":"B000012869","school_name":"제천고등학교","school_classification":"고등학교","operational_status":"운영","office_of_edu_code":8000000,"office_of_edu_name":"충청북도교육청","latitude":37.14308749,"longitude":128.2179452},
{"school_id":"B000011883","school_name":"충남외국어고등학교","school_classification":"고등학교","operational_status":"운영","office_of_edu_code":8140000,"office_of_edu_name":"충청남도교육청","latitude":36.80404361,"longitude":127.061467},
{"school_id":"B000011589","school_name":"영동산업과학고등학교","school_classification":"고등학교","operational_status":"운영","office_of_edu_code":8000000,"office_of_edu_name":"충청북도교육청","latitude":36.17254541,"longitude":127.7711799},
{"school_id":"B000012949","school_name":"홍성여자고등학교","school_classification":"고등학교","operational_status":"운영","office_of_edu_code":8140000,"office_of_edu_name":"충청남도교육청","latitude":36.60770606,"longitude":126.6685113},
{"school_id":"B000023143","school_name":"새롬고등학교","school_classification":"고등학교","operational_status":"운영","office_of_edu_code":9300000,"office_of_edu_name":"세종특별자치시교육청","latitude":36.48659299,"longitude":127.2491257},
{"school_id":"B000024553","school_name":"홍성고부설방송통신고등학교","school_classification":"고등학교","operational_status":"운영","office_of_edu_code":8140000,"office_of_edu_name":"충청남도교육청","latitude":36.65002468,"longitude":126.6726491},
{"school_id":"B000012894","school_name":"천안청수고등학교","school_classification":"고등학교","operational_status":"운영","office_of_edu_code":8140000,"office_of_edu_name":"충청남도교육청","latitude":36.79141382,"longitude":127.1591804},
{"school_id":"B000012895","school_name":"천안제일고등학교","school_classification":"고등학교","operational_status":"운영","office_of_edu_code":8140000,"office_of_edu_name":"충청남도교육청","latitude":36.80863404,"longitude":127.1532984},
{"school_id":"B000012892","school_name":"천안중앙고등학교","school_classification":"고등학교","operational_status":"운영","office_of_edu_code":8140000,"office_of_edu_name":"충청남도교육청","latitude":36.81106206,"longitude":127.1598874},
{"school_id":"B000011576","school_name":"국원고등학교","school_classification":"고등학교","operational_status":"운영","office_of_edu_code":8000000,"office_of_edu_name":"충청북도교육청","latitude":36.97949344,"longitude":127.9214027},
{"school_id":"B000025798","school_name":"대금고등학교","school_classification":"고등학교","operational_status":"운영","office_of_edu_code":8000000,"office_of_edu_name":"충청북도교육청","latitude":36.98184963,"longitude":127.5279252},
{"school_id":"B000012897","school_name":"천안신당고등학교","school_classification":"고등학교","operational_status":"운영","office_of_edu_code":8140000,"office_of_edu_name":"충청남도교육청","latitude":36.85148352,"longitude":127.1597115},
{"school_id":"B000011579","school_name":"제천산업고등학교","school_classification":"고등학교","operational_status":"운영","office_of_edu_code":8000000,"office_of_edu_name":"충청북도교육청","latitude":37.11962871,"longitude":128.2342425},
{"school_id":"B000011572","school_name":"청주하이텍고등학교","school_classification":"고등학교","operational_status":"운영","office_of_edu_code":8000000,"office_of_edu_name":"충청북도교육청","latitude":36.60921436,"longitude":127.4923679},
{"school_id":"B000012940","school_name":"한솔고등학교","school_classification":"고등학교","operational_status":"운영","office_of_edu_code":9300000,"office_of_edu_name":"세종특별자치시교육청","latitude":36.47842598,"longitude":127.2528695},
{"school_id":"B000023102","school_name":"덕산고등학교","school_classification":"고등학교","operational_status":"운영","office_of_edu_code":8140000,"office_of_edu_name":"충청남도교육청","latitude":36.66632026,"longitude":126.682976},
{"school_id":"B000012896","school_name":"천안쌍용고등학교","school_classification":"고등학교","operational_status":"운영","office_of_edu_code":8140000,"office_of_edu_name":"충청남도교육청","latitude":36.78875649,"longitude":127.114008},
{"school_id":"B000013558","school_name":"천안업성고등학교","school_classification":"고등학교","operational_status":"운영","office_of_edu_code":8140000,"office_of_edu_name":"충청남도교육청","latitude":36.8616664,"longitude":127.1379306},
{"school_id":"B000012951","school_name":"충남드론항공고등학교","school_classification":"고등학교","operational_status":"운영","office_of_edu_code":8140000,"office_of_edu_name":"충청남도교육청","latitude":36.50507898,"longitude":126.6277951},
{"school_id":"B000010119","school_name":"세종장영실고등학교","school_classification":"고등학교","operational_status":"운영","office_of_edu_code":9300000,"office_of_edu_name":"세종특별자치시교육청","latitude":36.47763276,"longitude":127.2994619},
{"school_id":"B000012899","school_name":"천안두정고등학교","school_classification":"고등학교","operational_status":"운영","office_of_edu_code":8140000,"office_of_edu_name":"충청남도교육청","latitude":36.83515306,"longitude":127.130402},
{"school_id":"B000011598","school_name":"천안상업고등학교","school_classification":"고등학교","operational_status":"운영","office_of_edu_code":8140000,"office_of_edu_name":"충청남도교육청","latitude":36.85835685,"longitude":127.1579054},
{"school_id":"B000011600","school_name":"한마음고등학교","school_classification":"고등학교","operational_status":"운영","office_of_edu_code":8140000,"office_of_edu_name":"충청남도교육청","latitude":36.77857819,"longitude":127.3788257},
{"school_id":"B000023269","school_name":"충북체육고등학교","school_classification":"고등학교","operational_status":"운영","office_of_edu_code":8000000,"office_of_edu_name":"충청북도교육청","latitude":36.76308637,"longitude":127.4347297},
{"school_id":"B000011599","school_name":"병천고등학교","school_classification":"고등학교","operational_status":"운영","office_of_edu_code":8140000,"office_of_edu_name":"충청남도교육청","latitude":36.76421876,"longitude":127.3133478},
{"school_id":"B000011582","school_name":"충북에너지고등학교","school_classification":"고등학교","operational_status":"운영","office_of_edu_code":8000000,"office_of_edu_name":"충청북도교육청","latitude":36.63980192,"longitude":127.6571478},
{"school_id":"B000025805","school_name":"천안불당고등학교","school_classification":"고등학교","operational_status":"운영","office_of_edu_code":8140000,"office_of_edu_name":"충청남도교육청","latitude":36.80949494,"longitude":127.1029743},
{"school_id":"B000012872","school_name":"세명고등학교","school_classification":"고등학교","operational_status":"운영","office_of_edu_code":8000000,"office_of_edu_name":"충청북도교육청","latitude":37.18313024,"longitude":128.1977907},
{"school_id":"B000012371","school_name":"대전만년고등학교","school_classification":"고등학교","operational_status":"운영","office_of_edu_code":7430000,"office_of_edu_name":"대전광역시교육청","latitude":36.3672699,"longitude":127.3729925},
{"school_id":"B000011597","school_name":"천안여자상업고등학교","school_classification":"고등학교","operational_status":"운영","office_of_edu_code":8140000,"office_of_edu_name":"충청남도교육청","latitude":36.8036777,"longitude":127.1365589},
{"school_id":"B000012917","school_name":"온양용화고등학교","school_classification":"고등학교","operational_status":"운영","office_of_edu_code":8140000,"office_of_edu_name":"충청남도교육청","latitude":36.77371849,"longitude":127.0028101}]