[{"school_id":"B000012612","school_name":"광명고등학교","school_classification":"고등학교","operational_status":"운영","office_of_edu_code":7530000,"office_of_edu_name":"경기도교육청","latitude":37.47857117,"longitude":126.8659896},
{"school_id":"B000012550","school_name":"성복고등학교","school_classification":"고등학교","operational_status":"운영","office_of_edu_code":7530000,"office_of_edu_name":"경기도교육청","latitude":37.32336344,"longitude":127.0611228},
{"school_id":"B000026215","school_name":"목감고등학교","school_classification":"고등학교","operational_status":"운영","office_of_edu_code":7530000,"office_of_edu_name":"경기도교육청","latitude":37.37222339,"longitude":126.8571834},
{"school_id":"B000012251","school_name":"인천만수고등학교","school_classification":"고등학교","operational_status":"운영","office_of_edu_code":7310000,"office_of_edu_name":"인천광역시교육청","latitude":37.447099,"longitude":126.7422697},
{"school_id":"B000013549","school_name":"충현고등학교","school_classification":"고등학교","operational_status":"운영","office_of_edu_code":7530000,"office_of_edu_name":"경기도교육청","latitude":37.43295996,"longitude":126.8845281},
{"school_id":"B000012734","school_name":"삼광고등학교","school_classification":"고등학교","operational_status":"운영","office_of_edu_code":7530000,"office_of_edu_name":"경기도교육청","latitude":37.94557773,"longitude":126.8855095},
{"school_id":"B000025212","school_name":"인천포스코고등학교","school_classification":"고등학교","operational_status":"운영","office_of_edu_code":7310000,"office_of_edu_name":"인천광역시교육청","latitude":37.40146601,"longitude":126.6483623},
{"school_id":"B000011530","school_name":"두원공업고등학교","school_classification":"고등학교","operational_status":"운영","office_of_edu_code":7530000,"office_of_edu_name":"경기도교육청","latitude":36.9967779,"longitude":127.2417999},
{"school_id":"B000012260","school_name":"숭덕여자고등학교","school_classification":"고등학교","operational_status":"운영","office_of_edu_code":7310000,"office_of_edu_name":"인천광역시교육청","latitude":37.46428211,"longitude":126.7339171},
{"school_id":"B000011443","school_name":"산마을고등학교","school_classification":"고등학교","operational_status":"운영","office_of_edu_code":7310000,"office_of_edu_name":"인천광역시교육청","latitude":37.68636257,"longitude":126.4255653},
{"school_id":"B000012723","school_name":"문산제일고등학교","school_classification":"고등학교","operational_status":"운영","office_of_edu_code":7530000,"office_of_edu_name":"경기도교육청","latitude":37.77260399,"longitude":126.7628873},
{"school_id":"B000025211","school_name":"인천연송고등학교","school_classification":"고등학교","operational_status":"운영","office_of_edu_code":7310000,"office_of_edu_name":"인천광역시교육청","latitude":37.40316747,"longitude":126.6467361},
{"school_id":"B000012515","school_name":"과천여자고등학교","school_classification":"고등학교","operational_status":"운영","office_of_edu_code":7530000,"office_of_edu_name":"경기도교육청","latitude":37.43264355,"longitude":126.9881073},
{"school_id":"B000011858","school_name":"과천외국어고등학교","school_classification":"고등학교","operational_status":"운영","office_of_edu_code":7530000,"office_of_edu_name":"경기도교육청","latitude":37.43264355,"longitude":126.9881073},
{"school_id":"B000012725","school_name":"봉일천고등학교","school_classification":"고등학교","operational_status":"운영","office_of_edu_code":7530000,"office_of_edu_name":"경기도교육청","latitude":37.74699036,"longitude":126.8162726},
{"school_id":"B000011514","school_name":"한국조리과학고등학교","school_classification":"고등학교","operational_status":"운영","office_of_edu_code":7530000,"office_of_edu_name":"경기도교육청","latitude":37.45851798,"longitude":126.8323613},
{"school_id":"B000012738","school_name":"동두천고등학교","school_classification":"고등학교","operational_status":"운영","office_of_edu_code":7530000,"office_of_edu_name":"경기도교육청","latitude":37.90471471,"longitude":127.0592539},
{"school_id":"B000012674","school_name":"일산동고등학교","school_classification":"고등학교","operational_status":"운영","office_of_edu_code":7530000,"office_of_edu_name":"경기도교육청","latitude":37.7006519,"longitude":126.7686598},
{"school_id":"B000012644","school_name":"안성여자고등학교","school_classification":"고등학교","operational_status":"운영","office_of_edu_code":7530000,"office_of_edu_name":"경기도교육청","latitude":37.01814312,"longitude":127.257949},
{"school_id":"B000012687","school_name":"일산대진고등학교","school_classification":"고등학교","operational_status":"운영","office_of_edu_code":7530000,"office_of_edu_name":"경기도교육청","latitude":37.68047139,"longitude":126.7515967},
{"school_id":"B000012297","school_name":"강화여자고등학교","school_classification":"고등학교","operational_status":"운영","office_of_edu_code":7310000,"office_of_edu_name":"인천광역시교육청","latitude":37.75388637,"longitude":126.4795303},
{"school_id":"B000011523","school_name":"광명경영회계고등학교","school_classification":"고등학교","operational_status":"운영","office_of_edu_code":7530000,"office_of_edu_name":"경기도교육청","latitude":37.4383574,"longitude":126.8821568},
{"school_id":"B000012500","school_name":"안양고등학교","school_classification":"고등학교","operational_status":"운영","office_of_edu_code":7530000,"office_of_edu_name":"경기도교육청","latitude":37.40048898,"longitude":126.90136},
{"school_id":"B000012531","school_name":"상현고등학교","school_classification":"고등학교","operational_status":"운영","office_of_edu_code":7530000,"office_of_edu_name":"경기도교육청","latitude":37.29911295,"longitude":127.0743761},
{"school_id":"B000011829","school_name":"인천국제고등학교","school_classification":"고등학교","operational_status":"운영","office_of_edu_code":7310000,"office_of_edu_name":"인천광역시교육청","latitude":37.48971398,"longitude":126.5094118},
{"school_id":"B000011534","school_name":"일산고등학교","school_classification":"고등학교","operational_status":"운영","office_of_edu_code":7530000,"office_of_edu_name":"경기도교육청","latitude":37.6889721,"longitude":126.7683384},
{"school_id":"B000012732","school_name":"광탄고등학교","school_classification":"고등학교","operational_status":"운영","office_of_edu_code":7530000,"office_of_edu_name":"경기도교육청","latitude":37.78343723,"longitude":126.848919},
{"school_id":"B000011535","school_name":"일산국제컨벤션고등학교","school_classification":"고등학교","operational_status":"운영","office_of_edu_code":7530000,"office_of_edu_name":"경기도교육청","latitude":37.67288456,"longitude":126.771578},
{"school_id":"B000013544","school_name":"안산동산고등학교","school_classification":"고등학교","operational_status":"운영","office_of_edu_code":7530000,"office_of_edu_name":"경기도교육청","latitude":37.28686736,"longitude":126.8585591},
{"school_id":"B000012745","school_name":"동남고등학교","school_classification":"고등학교","operational_status":"운영","office_of_edu_code":7530000,"office_of_edu_name":"경기도교육청","latitude":37.82695298,"longitude":127.1356234},
{"school_id":"B000011536","school_name":"경기영상과학고등학교","school_classification":"고등학교","operational_status":"운영","office_of_edu_code":7530000,"office_of_edu_name":"경기도교육청","latitude":37.66540546,"longitude":126.7621008},
{"school_id":"B000012696","school_name":"진건고등학교","school_classification":"고등학교","operational_status":"운영","office_of_edu_code":7530000,"office_of_edu_name":"경기도교육청","latitude":37.67452754,"longitude":127.1977814},
{"school_id":"B000012254","school_name":"인천남동고등학교","school_classification":"고등학교","operational_status":"운영","office_of_edu_code":7310000,"office_of_edu_name":"인천광역시교육청","latitude":37.4060269,"longitude":126.7215164},
{"school_id":"B000011529","school_name":"일죽고등학교","school_classification":"고등학교","operational_status":"운영","office_of_edu_code":7530000,"office_of_edu_name":"경기도교육청","latitude":37.0914178,"longitude":127.4733715},
{"school_id":"B000012676","school_name":"주엽고등학교","school_classification":"고등학교","operational_status":"운영","office_of_edu_code":7530000,"office_of_edu_name":"경기도교육청","latitude":37.67610348,"longitude":126.754359},
{"school_id":"B000012670","school_name":"정발고등학교","school_classification":"고등학교","operational_status":"운영","office_of_edu_code":7530000,"office_of_edu_name":"경기도교육청","latitude":37.66365025,"longitude":126.7861372},
{"school_id":"B000011863","school_name":"고양국제고등학교","school_classification":"고등학교","operational_status":"운영","office_of_edu_code":7530000,"office_of_edu_name":"경기도교육청","latitude":37.68458737,"longitude":126.8086453},
{"school_id":"B000012501","school_name":"충훈고등학교","school_classification":"고등학교","operational_status":"운영","office_of_edu_code":7530000,"office_of_edu_name":"경기도교육청","latitude":37.4108146,"longitude":126.8931377},
{"school_id":"B000023114","school_name":"지산고등학교","school_classification":"고등학교","operational_status":"운영","office_of_edu_code":7530000,"office_of_edu_name":"경기도교육청","latitude":37.7354276,"longitude":126.749871},
{"school_id":"B000012684","school_name":"능곡고등학교","school_classification":"고등학교","operational_status":"운영","office_of_edu_code":7530000,"office_of_edu_name":"경기도교육청","latitude":37.62396116,"longitude":126.8255017},
{"school_id":"B000012682","school_name":"고양일고등학교","school_classification":"고등학교","operational_status":"운영","office_of_edu_code":7530000,"office_of_edu_name":"경기도교육청","latitude":37.6997244,"longitude":126.9013355},
{"school_id":"B000012692","school_name":"호평고등학교","school_classification":"고등학교","operational_status":"운영","office_of_edu_code":7530000,"office_of_edu_name":"경기도교육청","latitude":37.65719386,"longitude":127.2527555},
{"school_id":"B000012685","school_name":"화수고등학교","school_classification":"고등학교","operational_status":"운영","office_of_edu_code":7530000,"office_of_edu_name":"경기도교육청","latitude":37.64506907,"longitude":126.8361544},
{"school_id":"B000012726","school_name":"교하고등학교","school_classification":"고등학교","operational_status":"운영","office_of_edu_code":7530000,"office_of_edu_name":"경기도교육청","latitude":37.7226655,"longitude":126.7217207},
{"school_id":"B000011517","school_name":"청담고등학교","school_classification":"고등학교","operational_status":"운영","office_of_edu_code":7530000,"office_of_edu_name":"경기도교육청","latitude":36.96221527,"longitude":127.0624303},
{"school_id":"B000023115","school_name":"동패고등학교","school_classification":"고등학교","operational_status":"운영","office_of_edu_code":7530000,"office_of_edu_name":"경기도교육청","latitude":37.71123986,"longitude":126.7344265},
{"school_id":"B000012677","school_name":"저동고등학교","school_classification":"고등학교","operational_status":"운영","office_of_edu_code":7530000,"office_of_edu_name":"경기도교육청","latitude":37.67086575,"longitude":126.7790577},
{"school_id":"B000012680","school_name":"무원고등학교","school_classification":"고등학교","operational_status":"운영","office_of_edu_code":7530000,"office_of_edu_name":"경기도교육청","latitude":37.61907994,"longitude":126.8381619},
{"school_id":"B000012704","school_name":"구리고등학교","school_classification":"고등학교","operational_status":"운영","office_of_edu_code":7530000,"office_of_edu_name":"경기도교육청","latitude":37.58857093,"longitude":127.1400939},
{"school_id":"B000011539","school_name":"남양주공업고등학교","school_classification":"고등학교","operational_status":"운영","office_of_edu_code":7530000,"office_of_edu_name":"경기도교육청","latitude":37.65247358,"longitude":127.3344687},
{"school_id":"B000012503","school_name":"관양고등학교","school_classification":"고등학교","operational_status":"운영","office_of_edu_code":7530000,"office_of_edu_name":"경기도교육청","latitude":37.40881423,"longitude":126.9601177},
{"school_id":"B000013550","school_name":"저현고등학교","school_classification":"고등학교","operational_status":"운영","office_of_edu_code":7530000,"office_of_edu_name":"경기도교육청","latitude":37.67779541,"longitude":126.8159566},
{"school_id":"B000012668","school_name":"안곡고등학교","school_classification":"고등학교","operational_status":"운영","office_of_edu_code":7530000,"office_of_edu_name":"경기도교육청","latitude":37.682002,"longitude":126.7872084},
{"school_id":"B000012694","school_name":"금곡고등학교","school_classification":"고등학교","operational_status":"운영","office_of_edu_code":7530000,"office_of_edu_name":"경기도교육청","latitude":37.63309159,"longitude":127.2129487},
{"school_id":"B000012666","school_name":"서정고등학교","school_classification":"고등학교","operational_status":"운영","office_of_edu_code":7530000,"office_of_edu_name":"경기도교육청","latitude":37.62124515,"longitude":126.8493849},
{"school_id":"B000012673","school_name":"백신고등학교","school_classification":"고등학교","operational_status":"운영","office_of_edu_code":7530000,"office_of_edu_name":"경기도교육청","latitude":37.64248837,"longitude":126.7819557},
{"school_id":"B000011483","school_name":"수원공업고등학교","school_classification":"고등학교","operational_status":"운영","office_of_edu_code":7530000,"office_of_edu_name":"경기도교육청","latitude":37.2742325,"longitude":127.0245216},
{"school_id":"B000012678","school_name":"행신고등학교","school_classification":"고등학교","operational_status":"운영","office_of_edu_code":7530000,"office_of_edu_name":"경기도교육청","latitude":37.61640532,"longitude":126.8426241},
{"school_id":"B000011544","school_name":"한국문화영상고등학교","school_classification":"고등학교","operational_status":"운영","office_of_edu_code":7530000,"office_of_edu_name":"경기도교육청","latitude":37.90605631,"longitude":127.060131},
{"school_id":"B000012664","school_name":"덕이고등학교","school_classification":"고등학교","operational_status":"운영","office_of_edu_code":7530000,"office_of_edu_name":"경기도교육청","latitude":37.69575632,"longitude":126.7548512},
{"school_id":"B000012667","school_name":"중산고등학교","school_classification":"고등학교","operational_status":"운영","office_of_edu_code":7530000,"office_of_edu_name":"경기도교육청","latitude":37.69694847,"longitude":126.7825931},
{"school_id":"B000012686","school_name":"세원고등학교","school_classification":"고등학교","operational_status":"운영","office_of_edu_code":7530000,"office_of_edu_name":"경기도교육청","latitude":37.67146934,"longitude":126.8033476},
{"school_id":"B000012592","school_name":"예당고등학교","school_classification":"고등학교","operational_status":"운영","office_of_edu_code":7530000,"office_of_edu_name":"경기도교육청","latitude":37.20845778,"longitude":127.0802397},
{"school_id":"B000012741","school_name":"덕현고등학교","school_classification":"고등학교","operational_status":"운영","office_of_edu_code":7530000,"office_of_edu_name":"경기도교육청","latitude":37.7982397,"longitude":127.0846203},
{"school_id":"B000012707","school_name":"인창고등학교","school_classification":"고등학교","operational_status":"운영","office_of_edu_code":7530000,"office_of_edu_name":"경기도교육청","latitude":37.605409,"longitude":127.1464712},
{"school_id":"B000011538","school_name":"고양고등학교","school_classification":"고등학교","operational_status":"운영","office_of_edu_code":7530000,"office_of_edu_name":"경기도교육청","latitude":37.6542399,"longitude":126.8908686},
{"school_id":"B000012683","school_name":"성사고등학교","school_classification":"고등학교","operational_status":"운영","office_of_edu_code":7530000,"office_of_edu_name":"경기도교육청","latitude":37.6630053,"longitude":126.8421078},
{"school_id":"B000011497","school_name":"평촌경영고등학교","school_classification":"고등학교","operational_status":"운영","office_of_edu_code":7530000,"office_of_edu_name":"경기도교육청","latitude":37.40107292,"longitude":126.9590273},
{"school_id":"B000012669","school_name":"풍동고등학교","school_classification":"고등학교","operational_status":"운영","office_of_edu_code":7530000,"office_of_edu_name":"경기도교육청","latitude":37.6718435,"longitude":126.7950813},
{"school_id":"B000012722","school_name":"금촌고등학교","school_classification":"고등학교","operational_status":"운영","office_of_edu_code":7530000,"office_of_edu_name":"경기도교육청","latitude":37.75019671,"longitude":126.7787647},
{"school_id":"B000012743","school_name":"포천고등학교","school_classification":"고등학교","operational_status":"운영","office_of_edu_code":7530000,"office_of_edu_name":"경기도교육청","latitude":37.89142616,"longitude":127.1923465},
{"school_id":"B000012583","school_name":"태광고등학교","school_classification":"고등학교","operational_status":"운영","office_of_edu_code":7530000,"office_of_edu_name":"경기도교육청","latitude":37.07380166,"longitude":127.0534992},
{"school_id":"B000012671","school_name":"백석고등학교","school_classification":"고등학교","operational_status":"운영","office_of_edu_code":7530000,"office_of_edu_name":"경기도교육청","latitude":37.6529063,"longitude":126.7869189},
{"school_id":"B000011427","school_name":"문학정보고등학교","school_classification":"고등학교","operational_status":"운영","office_of_edu_code":7310000,"office_of_edu_name":"인천광역시교육청","latitude":37.43549148,"longitude":126.6866821},
{"school_id":"B000012458","school_name":"운중고등학교","school_classification":"고등학교","operational_status":"운영","office_of_edu_code":7530000,"office_of_edu_name":"경기도교육청","latitude":37.39280433,"longitude":127.0736445},
{"school_id":"B000012436","school_name":"숙지고등학교","school_classification":"고등학교","operational_status":"운영","office_of_edu_code":7530000,"office_of_edu_name":"경기도교육청","latitude":37.28296783,"longitude":126.9932658},
{"school_id":"B000012748","school_name":"영북고등학교","school_classification":"고등학교","operational_status":"운영","office_of_edu_code":7530000,"office_of_edu_name":"경기도교육청","latitude":38.08606458,"longitude":127.2762709},
{"school_id":"B000011865","school_name":"고양외국어고등학교","school_classification":"고등학교","operational_status":"운영","office_of_edu_code":7530000,"office_of_edu_name":"경기도교육청","latitude":37.69052753,"longitude":126.8592787},
{"school_id":"B000012675","school_name":"가좌고등학교","school_classification":"고등학교","operational_status":"운영","office_of_edu_code":7530000,"office_of_edu_name":"경기도교육청","latitude":37.68802952,"longitude":126.7201873},
{"school_id":"B000012537","school_name":"동백고등학교","school_classification":"고등학교","operational_status":"운영","office_of_edu_code":7530000,"office_of_edu_name":"경기도교육청","latitude":37.28335075,"longitude":127.1584727},
{"school_id":"B000012530","school_name":"대부고등학교","school_classification":"고등학교","operational_status":"운영","office_of_edu_code":7530000,"office_of_edu_name":"경기도교육청","latitude":37.2477508,"longitude":126.5790618},
{"school_id":"B000012601","school_name":"송산고등학교","school_classification":"고등학교","operational_status":"운영","office_of_edu_code":7530000,"office_of_edu_name":"경기도교육청","latitude":37.2164646,"longitude":126.7382371},
{"school_id":"B000012605","school_name":"성호고등학교","school_classification":"고등학교","operational_status":"운영","office_of_edu_code":7530000,"office_of_edu_name":"경기도교육청","latitude":37.13914256,"longitude":127.0816273},
{"school_id":"B000011506","school_name":"안산공업고등학교","school_classification":"고등학교","operational_status":"운영","office_of_edu_code":7530000,"office_of_edu_name":"경기도교육청","latitude":37.33634682,"longitude":126.8615892},
{"school_id":"B000012736","school_name":"신흥고등학교","school_classification":"고등학교","operational_status":"운영","office_of_edu_code":7530000,"office_of_edu_name":"경기도교육청","latitude":37.93106706,"longitude":127.0478141},
{"school_id":"B000012702","school_name":"덕소고등학교","school_classification":"고등학교","operational_status":"운영","office_of_edu_code":7530000,"office_of_edu_name":"경기도교육청","latitude":37.5793838,"longitude":127.2165957},
{"school_id":"B000012679","school_name":"백양고등학교","school_classification":"고등학교","operational_status":"운영","office_of_edu_code":7530000,"office_of_edu_name":"경기도교육청","latitude":37.62949459,"longitude":126.8384269},
{"school_id":"B000012599","school_name":"화성고등학교","school_classification":"고등학교","operational_status":"운영","office_of_edu_code":7530000,"office_of_edu_name":"경기도교육청","latitude":37.13902926,"longitude":126.9064904},
{"school_id":"B000012621","school_name":"신장고등학교","school_classification":"고등학교","operational_status":"운영","office_of_edu_code":7530000,"office_of_edu_name":"경기도교육청","latitude":37.5438275,"longitude":127.2096778},
{"school_id":"B000011507","school_name":"덕영고등학교","school_classification":"고등학교","operational_status":"운영","office_of_edu_code":7530000,"office_of_edu_name":"경기도교육청","latitude":37.24160007,"longitude":127.2161944},
{"school_id":"B000012700","school_name":"심석고등학교","school_classification":"고등학교","operational_status":"운영","office_of_edu_code":7530000,"office_of_edu_name":"경기도교육청","latitude":37.65603445,"longitude":127.3068854},
{"school_id":"B000012440","school_name":"청명고등학교","school_classification":"고등학교","operational_status":"운영","office_of_edu_code":7530000,"office_of_edu_name":"경기도교육청","latitude":37.26089042,"longitude":127.0773249},
{"school_id":"B000012585","school_name":"안중고등학교","school_classification":"고등학교","operational_status":"운영","office_of_edu_code":7530000,"office_of_edu_name":"경기도교육청","latitude":36.98699168,"longitude":126.9232225},
{"school_id":"B000012445","school_name":"유신고등학교","school_classification":"고등학교","operational_status":"운영","office_of_edu_code":7530000,"office_of_edu_name":"경기도교육청","latitude":37.28243152,"longitude":127.0413483},
{"school_id":"B000012275","school_name":"제일고등학교","school_classification":"고등학교","operational_status":"운영","office_of_edu_code":7310000,"office_of_edu_name":"인천광역시교육청","latitude":37.478222,"longitude":126.7083763},
{"school_id":"B000011501","school_name":"경기모바일과학고등학교","school_classification":"고등학교","operational_status":"운영","office_of_edu_code":7530000,"office_of_edu_name":"경기도교육청","latitude":37.30556825,"longitude":126.8981471},
{"school_id":"B000012242","school_name":"연수고등학교","school_classification":"고등학교","operational_status":"운영","office_of_edu_code":7310000,"office_of_edu_name":"인천광역시교육청","latitude":37.41173562,"longitude":126.6801271},
{"school_id":"B000011508","school_name":"용인바이오고등학교","school_classification":"고등학교","operational_status":"운영","office_of_edu_code":7530000,"office_of_edu_name":"경기도교육청","latitude":37.1404411,"longitude":127.2007625},
{"school_id":"B000012719","school_name":"경민고등학교","school_classification":"고등학교","operational_status":"운영","office_of_edu_code":7530000,"office_of_edu_name":"경기도교육청","latitude":37.74612458,"longitude":127.0251316},
{"school_id":"B000012547","school_name":"대지고등학교","school_classification":"고등학교","operational_status":"운영","office_of_edu_code":7530000,"office_of_edu_name":"경기도교육청","latitude":37.32477894,"longitude":127.1225516},
{"school_id":"B000012258","school_name":"인제고등학교","school_classification":"고등학교","operational_status":"운영","office_of_edu_code":7310000,"office_of_edu_name":"인천광역시교육청","latitude":37.46139701,"longitude":126.7124654},
{"school_id":"B000023230","school_name":"라온고등학교","school_classification":"고등학교","operational_status":"운영","office_of_edu_code":7530000,"office_of_edu_name":"경기도교육청","latitude":37.06940562,"longitude":127.0669522},
{"school_id":"B000012522","school_name":"고잔고등학교","school_classification":"고등학교","operational_status":"운영","office_of_edu_code":7530000,"office_of_edu_name":"경기도교육청","latitude":37.30878749,"longitude":126.8353458},
{"school_id":"B000012742","school_name":"양주백석고등학교","school_classification":"고등학교","operational_status":"운영","office_of_edu_code":7530000,"office_of_edu_name":"경기도교육청","latitude":37.79179274,"longitude":126.9867415},
{"school_id":"B000012292","school_name":"검단고등학교","school_classification":"고등학교","operational_status":"운영","office_of_edu_code":7310000,"office_of_edu_name":"인천광역시교육청","latitude":37.60386225,"longitude":126.6647414},
{"school_id":"B000012701","school_name":"광동고등학교","school_classification":"고등학교","operational_status":"운영","office_of_edu_code":7530000,"office_of_edu_name":"경기도교육청","latitude":37.71675577,"longitude":127.1751688},
{"school_id":"B000012706","school_name":"수택고등학교","school_classification":"고등학교","operational_status":"운영","office_of_edu_code":7530000,"office_of_edu_name":"경기도교육청","latitude":37.59487583,"longitude":127.1542326},
{"school_id":"B000012545","school_name":"죽전고등학교","school_classification":"고등학교","operational_status":"운영","office_of_edu_code":7530000,"office_of_edu_name":"경기도교육청","latitude":37.33263026,"longitude":127.1060548},
{"school_id":"B000012278","school_name":"계산고등학교","school_classification":"고등학교","operational_status":"운영","office_of_edu_code":7310000,"office_of_edu_name":"인천광역시교육청","latitude":37.54718933,"longitude":126.7297335},
{"school_id":"B000013523","school_name":"동인천고등학교","school_classification":"고등학교","operational_status":"운영","office_of_edu_code":7310000,"office_of_edu_name":"인천광역시교육청","latitude":37.46583064,"longitude":126.7352326},
{"school_id":"B000012546","school_name":"현암고등학교","school_classification":"고등학교","operational_status":"운영","office_of_edu_code":7530000,"office_of_edu_name":"경기도교육청","latitude":37.32880026,"longitude":127.1313577},
{"school_id":"B000013551","school_name":"와부고등학교","school_classification":"고등학교","operational_status":"운영","office_of_edu_code":7530000,"office_of_edu_name":"경기도교육청","latitude":37.59481963,"longitude":127.2231017},
{"school_id":"B000012562","school_name":"우성고등학교","school_classification":"고등학교","operational_status":"운영","office_of_edu_code":7530000,"office_of_edu_name":"경기도교육청","latitude":37.34928616,"longitude":126.9806509},
{"school_id":"B000013552","school_name":"청학고등학교","school_classification":"고등학교","operational_status":"운영","office_of_edu_code":7530000,"office_of_edu_name":"경기도교육청","latitude":37.71183929,"longitude":127.1195678},
{"school_id":"B000012576","school_name":"송탄고등학교","school_classification":"고등학교","operational_status":"운영","office_of_edu_code":7530000,"office_of_edu_name":"경기도교육청","latitude":37.05641034,"longitude":127.0699325},
{"school_id":"B000011440","school_name":"인천보건고등학교","school_classification":"고등학교","operational_status":"운영","office_of_edu_code":7310000,"office_of_edu_name":"인천광역시교육청","latitude":37.50532986,"longitude":126.6815492},
{"school_id":"B000012302","school_name":"인천영흥고등학교","school_classification":"고등학교","operational_status":"운영","office_of_edu_code":7310000,"office_of_edu_name":"인천광역시교육청","latitude":37.265211,"longitude":126.4794201},
{"school_id":"B000012548","school_name":"수지고등학교","school_classification":"고등학교","operational_status":"운영","office_of_edu_code":7530000,"office_of_edu_name":"경기도교육청","latitude":37.33131984,"longitude":127.0922274},
{"school_id":"B000012606","school_name":"오산고등학교","school_classification":"고등학교","operational_status":"운영","office_of_edu_code":7530000,"office_of_edu_name":"경기도교육청","latitude":37.15430591,"longitude":127.0626056},
{"school_id":"B000022584","school_name":"신길고등학교","school_classification":"고등학교","operational_status":"운영","office_of_edu_code":7530000,"office_of_edu_name":"경기도교육청","latitude":37.33443136,"longitude":126.787526},
{"school_id":"B000012280","school_name":"계산여자고등학교","school_classification":"고등학교","operational_status":"운영","office_of_edu_code":7310000,"office_of_edu_name":"인천광역시교육청","latitude":37.53825318,"longitude":126.7418943},
{"school_id":"B000012552","school_name":"태성고등학교","school_classification":"고등학교","operational_status":"운영","office_of_edu_code":7530000,"office_of_edu_name":"경기도교육청","latitude":37.22892007,"longitude":127.2088544},
{"school_id":"B000012705","school_name":"구리여자고등학교","school_classification":"고등학교","operational_status":"운영","office_of_edu_code":7530000,"office_of_edu_name":"경기도교육청","latitude":37.59175747,"longitude":127.1514056},
{"school_id":"B000012267","school_name":"부평여자고등학교","school_classification":"고등학교","operational_status":"운영","office_of_edu_code":7310000,"office_of_edu_name":"인천광역시교육청","latitude":37.50115184,"longitude":126.7197062},
{"school_id":"B000012235","school_name":"선인고등학교","school_classification":"고등학교","operational_status":"운영","office_of_edu_code":7310000,"office_of_edu_name":"인천광역시교육청","latitude":37.47395988,"longitude":126.6519987},
{"school_id":"B000011527","school_name":"하남경영고등학교","school_classification":"고등학교","operational_status":"운영","office_of_edu_code":7530000,"office_of_edu_name":"경기도교육청","latitude":37.53845212,"longitude":127.2260188},
{"school_id":"B000012709","school_name":"서울삼육고등학교","school_classification":"고등학교","operational_status":"운영","office_of_edu_code":7530000,"office_of_edu_name":"경기도교육청","latitude":37.5952268,"longitude":127.1245233},
{"school_id":"B000012662","school_name":"용문고등학교","school_classification":"고등학교","operational_status":"운영","office_of_edu_code":7530000,"office_of_edu_name":"경기도교육청","latitude":37.49187337,"longitude":127.5988154},
{"school_id":"B000012253","school_name":"인천송천고등학교","school_classification":"고등학교","operational_status":"운영","office_of_edu_code":7310000,"office_of_edu_name":"인천광역시교육청","latitude":37.3958707,"longitude":126.7216321},
{"school_id":"B000012614","school_name":"광주고등학교","school_classification":"고등학교","operational_status":"운영","office_of_edu_code":7530000,"office_of_edu_name":"경기도교육청","latitude":37.41766644,"longitude":127.265711},
{"school_id":"B000012274","school_name":"세일고등학교","school_classification":"고등학교","operational_status":"운영","office_of_edu_code":7310000,"office_of_edu_name":"인천광역시교육청","latitude":37.50616504,"longitude":126.6930689},
{"school_id":"B000011496","school_name":"경기게임마이스터고등학교","school_classification":"고등학교","operational_status":"운영","office_of_edu_code":7530000,"office_of_edu_name":"경기도교육청","latitude":37.39791081,"longitude":126.9474683},
{"school_id":"B000012289","school_name":"가정고등학교","school_classification":"고등학교","operational_status":"운영","office_of_edu_code":7310000,"office_of_edu_name":"인천광역시교육청","latitude":37.51351681,"longitude":126.6797187},
{"school_id":"B000012305","school_name":"덕적고등학교","school_classification":"고등학교","operational_status":"운영","office_of_edu_code":7310000,"office_of_edu_name":"인천광역시교육청","latitude":37.22538058,"longitude":126.1481953},
{"school_id":"B000012234","school_name":"학익고등학교","school_classification":"고등학교","operational_status":"운영","office_of_edu_code":7310000,"office_of_edu_name":"인천광역시교육청","latitude":37.43903057,"longitude":126.6633844},
{"school_id":"B000012277","school_name":"계양고등학교","school_classification":"고등학교","operational_status":"운영","office_of_edu_code":7310000,"office_of_edu_name":"인천광역시교육청","latitude":37.54193113,"longitude":126.7438981},
{"school_id":"B000011422","school_name":"영화국제관광고등학교","school_classification":"고등학교","operational_status":"운영","office_of_edu_code":7310000,"office_of_edu_name":"인천광역시교육청","latitude":37.47139745,"longitude":126.6403955},
{"school_id":"B000011515","school_name":"동일공업고등학교","school_classification":"고등학교","operational_status":"운영","office_of_edu_code":7530000,"office_of_edu_name":"경기도교육청","latitude":36.99232581,"longitude":127.1179833},
{"school_id":"B000012555","school_name":"백암고등학교","school_classification":"고등학교","operational_status":"운영","office_of_edu_code":7530000,"office_of_edu_name":"경기도교육청","latitude":37.164968,"longitude":127.3685728},
{"school_id":"B000011518","school_name":"한국관광고등학교","school_classification":"고등학교","operational_status":"운영","office_of_edu_code":7530000,"office_of_edu_name":"경기도교육청","latitude":37.07183184,"longitude":127.0220615},
{"school_id":"B000011520","school_name":"두레자연고등학교","school_classification":"고등학교","operational_status":"운영","office_of_edu_code":7530000,"office_of_edu_name":"경기도교육청","latitude":37.0593862,"longitude":126.7957736},
{"school_id":"B000012248","school_name":"송도고등학교","school_classification":"고등학교","operational_status":"운영","office_of_edu_code":7310000,"office_of_edu_name":"인천광역시교육청","latitude":37.42861209,"longitude":126.6437726},
{"school_id":"B000012539","school_name":"구성고등학교","school_classification":"고등학교","operational_status":"운영","office_of_edu_code":7530000,"office_of_edu_name":"경기도교육청","latitude":37.29914483,"longitude":127.1156348},
{"school_id":"B000012243","school_name":"인천여자고등학교","school_classification":"고등학교","operational_status":"운영","office_of_edu_code":7310000,"office_of_edu_name":"인천광역시교육청","latitude":37.42188142,"longitude":126.6903145},
{"school_id":"B000011834","school_name":"인천외국어고등학교","school_classification":"고등학교","operational_status":"운영","office_of_edu_code":7310000,"office_of_edu_name":"인천광역시교육청","latitude":37.50473105,"longitude":126.695142},
{"school_id":"B000012291","school_name":"가좌고등학교","school_classification":"고등학교","operational_status":"운영","office_of_edu_code":7310000,"office_of_edu_name":"인천광역시교육청","latitude":37.48964618,"longitude":126.6809096},
{"school_id":"B000012241","school_name":"인명여자고등학교","school_classification":"고등학교","operational_status":"운영","office_of_edu_code":7310000,"office_of_edu_name":"인천광역시교육청","latitude":37.44037081,"longitude":126.6972234},
{"school_id":"B000011540","school_name":"의정부공업고등학교","school_classification":"고등학교","operational_status":"운영","office_of_edu_code":7530000,"office_of_edu_name":"경기도교육청","latitude":37.74844623,"longitude":127.0375432},
{"school_id":"B000012511","school_name":"성문고등학교","school_classification":"고등학교","operational_status":"운영","office_of_edu_code":7530000,"office_of_edu_name":"경기도교육청","latitude":37.37984308,"longitude":126.9246852},
{"school_id":"B000012473","school_name":"분당대진고등학교","school_classification":"고등학교","operational_status":"운영","office_of_edu_code":7530000,"office_of_edu_name":"경기도교육청","latitude":37.36941233,"longitude":127.1381475},
{"school_id":"B000012257","school_name":"인천논현고등학교","school_classification":"고등학교","operational_status":"운영","office_of_edu_code":7310000,"office_of_edu_name":"인천광역시교육청","latitude":37.40402323,"longitude":126.727139},
{"school_id":"B000012591","school_name":"반송고등학교","school_classification":"고등학교","operational_status":"운영","office_of_edu_code":7530000,"office_of_edu_name":"경기도교육청","latitude":37.19276804,"longitude":127.0777778},
{"school_id":"B000012252","school_name":"도림고등학교","school_classification":"고등학교","operational_status":"운영","office_of_edu_code":7310000,"office_of_edu_name":"인천광역시교육청","latitude":37.42159517,"longitude":126.7187973},
{"school_id":"B000012279","school_name":"작전고등학교","school_classification":"고등학교","operational_status":"운영","office_of_edu_code":7310000,"office_of_edu_name":"인천광역시교육청","latitude":37.53284074,"longitude":126.7301792},
{"school_id":"B000012542","school_name":"초당고등학교","school_classification":"고등학교","operational_status":"운영","office_of_edu_code":7530000,"office_of_edu_name":"경기도교육청","latitude":37.25869538,"longitude":127.1632171},
{"school_id":"B000011505","school_name":"안산디자인문화고등학교","school_classification":"고등학교","operational_status":"운영","office_of_edu_code":7530000,"office_of_edu_name":"경기도교육청","latitude":37.29692001,"longitude":126.8713099},
{"school_id":"B000012660","school_name":"지평고등학교","school_classification":"고등학교","operational_status":"운영","office_of_edu_code":7530000,"office_of_edu_name":"경기도교육청","latitude":37.47447401,"longitude":127.6345589},
{"school_id":"B000012426","school_name":"수성고등학교","school_classification":"고등학교","operational_status":"운영","office_of_edu_code":7530000,"office_of_edu_name":"경기도교육청","latitude":37.29361367,"longitude":127.0026571},
{"school_id":"B000012502","school_name":"인덕원고등학교","school_classification":"고등학교","operational_status":"운영","office_of_edu_code":7530000,"office_of_edu_name":"경기도교육청","latitude":37.39997331,"longitude":126.981096},
{"school_id":"B000012581","school_name":"효명고등학교","school_classification":"고등학교","operational_status":"운영","office_of_edu_code":7530000,"office_of_edu_name":"경기도교육청","latitude":37.0501393,"longitude":127.0550807},
{"school_id":"B000012699","school_name":"오남고등학교","school_classification":"고등학교","operational_status":"운영","office_of_edu_code":7530000,"office_of_edu_name":"경기도교육청","latitude":37.69821404,"longitude":127.2065483},
{"school_id":"B000012533","school_name":"성지고등학교","school_classification":"고등학교","operational_status":"운영","office_of_edu_code":7530000,"office_of_edu_name":"경기도교육청","latitude":37.27228468,"longitude":127.1312675},
{"school_id":"B000012582","school_name":"은혜고등학교","school_classification":"고등학교","operational_status":"운영","office_of_edu_code":7530000,"office_of_edu_name":"경기도교육청","latitude":37.06654128,"longitude":127.0816468},
{"school_id":"B000023258","school_name":"인천전자마이스터고등학교","school_classification":"고등학교","operational_status":"운영","office_of_edu_code":7310000,"office_of_edu_name":"인천광역시교육청","latitude":37.47395988,"longitude":126.6519987},
{"school_id":"B000011860","school_name":"평택기계공업고등학교","school_classification":"고등학교","operational_status":"운영","office_of_edu_code":7530000,"office_of_edu_name":"경기도교육청","latitude":36.99908517,"longitude":127.091105},
{"school_id":"B000012663","school_name":"양동고등학교","school_classification":"고등학교","operational_status":"운영","office_of_edu_code":7530000,"office_of_edu_name":"경기도교육청","latitude":37.42168348,"longitude":127.755652},
{"school_id":"B000012229","school_name":"인일여자고등학교","school_classification":"고등학교","operational_status":"운영","office_of_edu_code":7310000,"office_of_edu_name":"인천광역시교육청","latitude":37.47797136,"longitude":126.6263097},
{"school_id":"B000011542","school_name":"경민IT고등학교","school_classification":"고등학교","operational_status":"운영","office_of_edu_code":7530000,"office_of_edu_name":"경기도교육청","latitude":37.74612458,"longitude":127.0251316},
{"school_id":"B000012549","school_name":"풍덕고등학교","school_classification":"고등학교","operational_status":"운영","office_of_edu_code":7530000,"office_of_edu_name":"경기도교육청","latitude":37.31702384,"longitude":127.0892193},
{"school_id":"B000012710","school_name":"의정부고등학교","school_classification":"고등학교","operational_status":"운영","office_of_edu_code":7530000,"office_of_edu_name":"경기도교육청","latitude":37.75491575,"longitude":127.0312746},
{"school_id":"B000012695","school_name":"동화고등학교","school_classification":"고등학교","operational_status":"운영","office_of_edu_code":7530000,"office_of_edu_name":"경기도교육청","latitude":37.60793099,"longitude":127.1619037},
{"school_id":"B000012434","school_name":"화홍고등학교","school_classification":"고등학교","operational_status":"운영","office_of_edu_code":7530000,"office_of_edu_name":"경기도교육청","latitude":37.2517435,"longitude":127.0402944},
{"school_id":"B000012618","school_name":"곤지암고등학교","school_classification":"고등학교","operational_status":"운영","office_of_edu_code":7530000,"office_of_edu_name":"경기도교육청","latitude":37.34856308,"longitude":127.3376091},
{"school_id":"B000025996","school_name":"별내고등학교","school_classification":"고등학교","operational_status":"운영","office_of_edu_code":7530000,"office_of_edu_name":"경기도교육청","latitude":37.65158042,"longitude":127.1170775},
{"school_id":"B000012246","school_name":"인천해송고등학교","school_classification":"고등학교","operational_status":"운영","office_of_edu_code":7310000,"office_of_edu_name":"인천광역시교육청","latitude":37.3825672,"longitude":126.6458688},
{"school_id":"B000012295","school_name":"서인천고등학교","school_classification":"고등학교","operational_status":"운영","office_of_edu_code":7310000,"office_of_edu_name":"인천광역시교육청","latitude":37.56108344,"longitude":126.675771},
{"school_id":"B000011420","school_name":"인천중앙여자상업고등학교","school_classification":"고등학교","operational_status":"운영","office_of_edu_code":7310000,"office_of_edu_name":"인천광역시교육청","latitude":37.46541654,"longitude":126.6418096},
{"school_id":"B000012714","school_name":"부용고등학교","school_classification":"고등학교","operational_status":"운영","office_of_edu_code":7530000,"office_of_edu_name":"경기도교육청","latitude":37.7363057,"longitude":127.0929481},
{"school_id":"B000024683","school_name":"서연고등학교","school_classification":"고등학교","operational_status":"운영","office_of_edu_code":7530000,"office_of_edu_name":"경기도교육청","latitude":37.1608191,"longitude":127.1114322},
{"school_id":"B000012558","school_name":"산본고등학교","school_classification":"고등학교","operational_status":"운영","office_of_edu_code":7530000,"office_of_edu_name":"경기도교육청","latitude":37.37078146,"longitude":126.9258411},
{"school_id":"B000022643","school_name":"경화여자English Business고등학교","school_classification":"고등학교","operational_status":"운영","office_of_edu_code":7530000,"office_of_edu_name":"경기도교육청","latitude":37.41824307,"longitude":127.2639914},
{"school_id":"B000011541","school_name":"경민비즈니스고등학교","school_classification":"고등학교","operational_status":"운영","office_of_edu_code":7530000,"office_of_edu_name":"경기도교육청","latitude":37.74612458,"longitude":127.0251316},
{"school_id":"B000011418","school_name":"인천정보산업고등학교","school_classification":"고등학교","operational_status":"운영","office_of_edu_code":7310000,"office_of_edu_name":"인천광역시교육청","latitude":37.47070292,"longitude":126.6366135},
{"school_id":"B000012575","school_name":"이충고등학교","school_classification":"고등학교","operational_status":"운영","office_of_edu_code":7530000,"office_of_edu_name":"경기도교육청","latitude":37.0574423,"longitude":127.0648687},
{"school_id":"B000012538","school_name":"용인백현고등학교","school_classification":"고등학교","operational_status":"운영","office_of_edu_code":7530000,"office_of_edu_name":"경기도교육청","latitude":37.2793322,"longitude":127.1625331},
{"school_id":"B000011429","school_name":"인천해양과학고등학교","school_classification":"고등학교","operational_status":"운영","office_of_edu_code":7310000,"office_of_edu_name":"인천광역시교육청","latitude":37.42524979,"longitude":126.6407095},
{"school_id":"B000012715","school_name":"호원고등학교","school_classification":"고등학교","operational_status":"운영","office_of_edu_code":7530000,"office_of_edu_name":"경기도교육청","latitude":37.70560206,"longitude":127.0443246},
{"school_id":"B000012712","school_name":"발곡고등학교","school_classification":"고등학교","operational_status":"운영","office_of_edu_code":7530000,"office_of_edu_name":"경기도교육청","latitude":37.7284602,"longitude":127.0678813},
{"school_id":"B000012744","school_name":"송우고등학교","school_classification":"고등학교","operational_status":"운영","office_of_edu_code":7530000,"office_of_edu_name":"경기도교육청","latitude":37.82940922,"longitude":127.1384377},
{"school_id":"B000012620","school_name":"남한고등학교","school_classification":"고등학교","operational_status":"운영","office_of_edu_code":7530000,"office_of_edu_name":"경기도교육청","latitude":37.5360184,"longitude":127.2030129},
{"school_id":"B000012472","school_name":"동광고등학교","school_classification":"고등학교","operational_status":"운영","office_of_edu_code":7530000,"office_of_edu_name":"경기도교육청","latitude":37.43463362,"longitude":127.1434964},
{"school_id":"B000011861","school_name":"동탄국제고등학교","school_classification":"고등학교","operational_status":"운영","office_of_edu_code":7530000,"office_of_edu_name":"경기도교육청","latitude":37.18920635,"longitude":127.0783391},
{"school_id":"B000011521","school_name":"삼괴고등학교","school_classification":"고등학교","operational_status":"운영","office_of_edu_code":7530000,"office_of_edu_name":"경기도교육청","latitude":37.08982064,"longitude":126.8222924},
{"school_id":"B000012510","school_name":"안양여자고등학교","school_classification":"고등학교","operational_status":"운영","office_of_edu_code":7530000,"office_of_edu_name":"경기도교육청","latitude":37.40353299,"longitude":126.9163026},
{"school_id":"B000012534","school_name":"기흥고등학교","school_classification":"고등학교","operational_status":"운영","office_of_edu_code":7530000,"office_of_edu_name":"경기도교육청","latitude":37.28229211,"longitude":127.108853},
{"school_id":"B000013543","school_name":"고색고등학교","school_classification":"고등학교","operational_status":"운영","office_of_edu_code":7530000,"office_of_edu_name":"경기도교육청","latitude":37.2538353,"longitude":126.9823466},
{"school_id":"B000012589","school_name":"동탄고등학교","school_classification":"고등학교","operational_status":"운영","office_of_edu_code":7530000,"office_of_edu_name":"경기도교육청","latitude":37.20414063,"longitude":127.0603836},
{"school_id":"B000012698","school_name":"진접고등학교","school_classification":"고등학교","operational_status":"운영","office_of_edu_code":7530000,"office_of_edu_name":"경기도교육청","latitude":37.71585327,"longitude":127.1904483},
{"school_id":"B000012250","school_name":"인천남고등학교","school_classification":"고등학교","operational_status":"운영","office_of_edu_code":7310000,"office_of_edu_name":"인천광역시교육청","latitude":37.46791494,"longitude":126.6965526},
{"school_id":"B000011417","school_name":"인천여자상업고등학교","school_classification":"고등학교","operational_status":"운영","office_of_edu_code":7310000,"office_of_edu_name":"인천광역시교육청","latitude":37.46821127,"longitude":126.6282965},
{"school_id":"B000012661","school_name":"양서고등학교","school_classification":"고등학교","operational_status":"운영","office_of_edu_code":7530000,"office_of_edu_name":"경기도교육청","latitude":37.54806766,"longitude":127.3279564},
{"school_id":"B000012430","school_name":"장안고등학교","school_classification":"고등학교","operational_status":"운영","office_of_edu_code":7530000,"office_of_edu_name":"경기도교육청","latitude":37.29312138,"longitude":126.9955918},
{"school_id":"B000012443","school_name":"매탄고등학교","school_classification":"고등학교","operational_status":"운영","office_of_edu_code":7530000,"office_of_edu_name":"경기도교육청","latitude":37.26262774,"longitude":127.0447779},
{"school_id":"B000012228","school_name":"제물포고등학교","school_classification":"고등학교","operational_status":"운영","office_of_edu_code":7310000,"office_of_edu_name":"인천광역시교육청","latitude":37.47726936,"longitude":126.6238449},
{"school_id":"B000011424","school_name":"인천기계공업고등학교","school_classification":"고등학교","operational_status":"운영","office_of_edu_code":7310000,"office_of_edu_name":"인천광역시교육청","latitude":37.45685643,"longitude":126.6683566},
{"school_id":"B000012729","school_name":"율곡고등학교","school_classification":"고등학교","operational_status":"운영","office_of_edu_code":7530000,"office_of_edu_name":"경기도교육청","latitude":37.8493834,"longitude":126.8811345},
{"school_id":"B000012693","school_name":"평내고등학교","school_classification":"고등학교","operational_status":"운영","office_of_edu_code":7530000,"office_of_edu_name":"경기도교육청","latitude":37.64205451,"longitude":127.2340944},
{"school_id":"B000012749","school_name":"관인고등학교","school_classification":"고등학교","operational_status":"운영","office_of_edu_code":7530000,"office_of_edu_name":"경기도교육청","latitude":38.15804881,"longitude":127.2505866},
{"school_id":"B000011827","school_name":"인천해사고등학교","school_classification":"고등학교","operational_status":"운영","office_of_edu_code":7310000,"office_of_edu_name":"인천광역시교육청","latitude":37.46863564,"longitude":126.6016659},
{"school_id":"B000022846","school_name":"백령고등학교","school_classification":"고등학교","operational_status":"운영","office_of_edu_code":7310000,"office_of_edu_name":"인천광역시교육청","latitude":37.96444697,"longitude":124.6760478},
{"school_id":"B000011866","school_name":"경기북과학고등학교","school_classification":"고등학교","operational_status":"운영","office_of_edu_code":7530000,"office_of_edu_name":"경기도교육청","latitude":37.7588324,"longitude":127.0196447},
{"school_id":"B000011432","school_name":"인천생활과학고등학교","school_classification":"고등학교","operational_status":"운영","office_of_edu_code":7310000,"office_of_edu_name":"인천광역시교육청","latitude":37.42400958,"longitude":126.6782904},
{"school_id":"B000023101","school_name":"비전고등학교","school_classification":"고등학교","operational_status":"운영","office_of_edu_code":7530000,"office_of_edu_name":"경기도교육청","latitude":37.0009278,"longitude":127.1057671},
{"school_id":"B000012272","school_name":"삼산고등학교","school_classification":"고등학교","operational_status":"운영","office_of_edu_code":7310000,"office_of_edu_name":"인천광역시교육청","latitude":37.52161093,"longitude":126.7458927},
{"school_id":"B000012283","school_name":"인천효성고등학교","school_classification":"고등학교","operational_status":"운영","office_of_edu_code":7310000,"office_of_edu_name":"인천광역시교육청","latitude":37.53146736,"longitude":126.7149972},
{"school_id":"B000012294","school_name":"대인고등학교","school_classification":"고등학교","operational_status":"운영","office_of_edu_code":7310000,"office_of_edu_name":"인천광역시교육청","latitude":37.55802602,"longitude":126.6786094},
{"school_id":"B000012230","school_name":"광성고등학교","school_classification":"고등학교","operational_status":"운영","office_of_edu_code":7310000,"office_of_edu_name":"인천광역시교육청","latitude":37.46757337,"longitude":126.639585},
{"school_id":"B000012718","school_name":"의정부광동고등학교","school_classification":"고등학교","operational_status":"운영","office_of_edu_code":7530000,"office_of_edu_name":"경기도교육청","latitude":37.75554366,"longitude":127.036201},
{"school_id":"B000013545","school_name":"용인한국외국어대학교부설고등학교","school_classification":"고등학교","operational_status":"운영","office_of_edu_code":7530000,"office_of_edu_name":"경기도교육청","latitude":37.33045822,"longitude":127.2567039},
{"school_id":"B000012264","school_name":"인천상정고등학교","school_classification":"고등학교","operational_status":"운영","office_of_edu_code":7310000,"office_of_edu_name":"인천광역시교육청","latitude":37.48070089,"longitude":126.6961796},
{"school_id":"B000012256","school_name":"인천고잔고등학교","school_classification":"고등학교","operational_status":"운영","office_of_edu_code":7310000,"office_of_edu_name":"인천광역시교육청","latitude":37.38914932,"longitude":126.7222573},
{"school_id":"B000022587","school_name":"부곡고등학교","school_classification":"고등학교","operational_status":"운영","office_of_edu_code":7530000,"office_of_edu_name":"경기도교육청","latitude":37.33153061,"longitude":126.8574668},
{"school_id":"B000012553","school_name":"신갈고등학교","school_classification":"고등학교","operational_status":"운영","office_of_edu_code":7530000,"office_of_edu_name":"경기도교육청","latitude":37.26975906,"longitude":127.1113065},
{"school_id":"B000012244","school_name":"연수여자고등학교","school_classification":"고등학교","operational_status":"운영","office_of_edu_code":7310000,"office_of_edu_name":"인천광역시교육청","latitude":37.41103535,"longitude":126.6723295},
{"school_id":"B000011434","school_name":"부평공업고등학교","school_classification":"고등학교","operational_status":"운영","office_of_edu_code":7310000,"office_of_edu_name":"인천광역시교육청","latitude":37.51253378,"longitude":126.7267928},
{"school_id":"B000011832","school_name":"인천예술고등학교","school_classification":"고등학교","operational_status":"운영","office_of_edu_code":7310000,"office_of_edu_name":"인천광역시교육청","latitude":37.45854014,"longitude":126.7039112},
{"school_id":"B000012288","school_name":"백석고등학교","school_classification":"고등학교","operational_status":"운영","office_of_edu_code":7310000,"office_of_edu_name":"인천광역시교육청","latitude":37.58060358,"longitude":126.6742921},
{"school_id":"B000011533","school_name":"양평전자과학고등학교","school_classification":"고등학교","operational_status":"운영","office_of_edu_code":7530000,"office_of_edu_name":"경기도교육청","latitude":37.51009186,"longitude":127.4009331},
{"school_id":"B000012249","school_name":"인천대건고등학교","school_classification":"고등학교","operational_status":"운영","office_of_edu_code":7310000,"office_of_edu_name":"인천광역시교육청","latitude":37.4019879,"longitude":126.6651466},
{"school_id":"B000011426","school_name":"인천비즈니스고등학교","school_classification":"고등학교","operational_status":"운영","office_of_edu_code":7310000,"office_of_edu_name":"인천광역시교육청","latitude":37.47211645,"longitude":126.6665695},
{"school_id":"B000012231","school_name":"인성여자고등학교","school_classification":"고등학교","operational_status":"운영","office_of_edu_code":7310000,"office_of_edu_name":"인천광역시교육청","latitude":37.47421402,"longitude":126.6243874},
{"school_id":"B000012245","school_name":"옥련여자고등학교","school_classification":"고등학교","operational_status":"운영","office_of_edu_code":7310000,"office_of_edu_name":"인천광역시교육청","latitude":37.43190903,"longitude":126.6488476},
{"school_id":"B000013525","school_name":"인천신현고등학교","school_classification":"고등학교","operational_status":"운영","office_of_edu_code":7310000,"office_of_edu_name":"인천광역시교육청","latitude":37.52034052,"longitude":126.6678412},
{"school_id":"B000023276","school_name":"경기물류고등학교","school_classification":"고등학교","operational_status":"운영","office_of_edu_code":7530000,"office_of_edu_name":"경기도교육청","latitude":36.9869058,"longitude":126.9296362},
{"school_id":"B000012658","school_name":"양일고등학교","school_classification":"고등학교","operational_status":"운영","office_of_edu_code":7530000,"office_of_edu_name":"경기도교육청","latitude":37.49437051,"longitude":127.4934909},
{"school_id":"B000011439","school_name":"인천디자인고등학교","school_classification":"고등학교","operational_status":"운영","office_of_edu_code":7310000,"office_of_edu_name":"인천광역시교육청","latitude":37.54822343,"longitude":126.6714899},
{"school_id":"B000012590","school_name":"나루고등학교","school_classification":"고등학교","operational_status":"운영","office_of_edu_code":7530000,"office_of_edu_name":"경기도교육청","latitude":37.18656401,"longitude":127.0719398},
{"school_id":"B000012238","school_name":"인화여자고등학교","school_classification":"고등학교","operational_status":"운영","office_of_edu_code":7310000,"office_of_edu_name":"인천광역시교육청","latitude":37.47395988,"longitude":126.6519987},
{"school_id":"B000012594","school_name":"병점고등학교","school_classification":"고등학교","operational_status":"운영","office_of_edu_code":7530000,"office_of_edu_name":"경기도교육청","latitude":37.20585454,"longitude":127.0437159},
{"school_id":"B000011430","school_name":"청학공업고등학교","school_classification":"고등학교","operational_status":"운영","office_of_edu_code":7310000,"office_of_edu_name":"인천광역시교육청","latitude":37.42084997,"longitude":126.6683713},
{"school_id":"B000022571","school_name":"군포중앙고등학교","school_classification":"고등학교","operational_status":"운영","office_of_edu_code":7530000,"office_of_edu_name":"경기도교육청","latitude":37.32397274,"longitude":126.9372177},
{"school_id":"B000012657","school_name":"양평고등학교","school_classification":"고등학교","operational_status":"운영","office_of_edu_code":7530000,"office_of_edu_name":"경기도교육청","latitude":37.48542599,"longitude":127.496038},
{"school_id":"B000012579","school_name":"신한고등학교","school_classification":"고등학교","operational_status":"운영","office_of_edu_code":7530000,"office_of_edu_name":"경기도교육청","latitude":36.99427251,"longitude":127.1028773},
{"school_id":"B000012720","school_name":"상우고등학교","school_classification":"고등학교","operational_status":"운영","office_of_edu_code":7530000,"office_of_edu_name":"경기도교육청","latitude":37.73131924,"longitude":127.0372967},
{"school_id":"B000012551","school_name":"용인고등학교","school_classification":"고등학교","operational_status":"운영","office_of_edu_code":7530000,"office_of_edu_name":"경기도교육청","latitude":37.24057072,"longitude":127.1930495},
{"school_id":"B000022827","school_name":"인천하이텍고등학교","school_classification":"고등학교","operational_status":"운영","office_of_edu_code":7310000,"office_of_edu_name":"인천광역시교육청","latitude":37.47395988,"longitude":126.6519987},
{"school_id":"B000012711","school_name":"의정부여자고등학교","school_classification":"고등학교","operational_status":"운영","office_of_edu_code":7530000,"office_of_edu_name":"경기도교육청","latitude":37.75003605,"longitude":127.0411502},
{"school_id":"B000012536","school_name":"흥덕고등학교","school_classification":"고등학교","operational_status":"운영","office_of_edu_code":7530000,"office_of_edu_name":"경기도교육청","latitude":37.27075758,"longitude":127.0744587},
{"school_id":"B000012465","school_name":"돌마고등학교","school_classification":"고등학교","operational_status":"운영","office_of_edu_code":7530000,"office_of_edu_name":"경기도교육청","latitude":37.39327801,"longitude":127.1321643},
{"school_id":"B000012524","school_name":"광덕고등학교","school_classification":"고등학교","operational_status":"운영","office_of_edu_code":7530000,"office_of_edu_name":"경기도교육청","latitude":37.34014053,"longitude":126.8457848},
{"school_id":"B000012691","school_name":"도농고등학교","school_classification":"고등학교","operational_status":"운영","office_of_edu_code":7530000,"office_of_edu_name":"경기도교육청","latitude":37.61138869,"longitude":127.150911},
{"school_id":"B000011428","school_name":"정석항공과학고등학교","school_classification":"고등학교","operational_status":"운영","office_of_edu_code":7310000,"office_of_edu_name":"인천광역시교육청","latitude":37.45144803,"longitude":126.6515423},
{"school_id":"B000012259","school_name":"신명여자고등학교","school_classification":"고등학교","operational_status":"운영","office_of_edu_code":7310000,"office_of_edu_name":"인천광역시교육청","latitude":37.46923037,"longitude":126.7130184},
{"school_id":"B000012266","school_name":"부광여자고등학교","school_classification":"고등학교","operational_status":"운영","office_of_edu_code":7310000,"office_of_edu_name":"인천광역시교육청","latitude":37.5026085,"longitude":126.7355759},
{"school_id":"B000012543","school_name":"서원고등학교","school_classification":"고등학교","operational_status":"운영","office_of_edu_code":7530000,"office_of_edu_name":"경기도교육청","latitude":37.3024074,"longitude":127.0814728},
{"school_id":"B000012520","school_name":"원곡고등학교","school_classification":"고등학교","operational_status":"운영","office_of_edu_code":7530000,"office_of_edu_name":"경기도교육청","latitude":37.33286062,"longitude":126.7986843},
{"school_id":"B000012240","school_name":"인하대학교사범대학부속고등학교","school_classification":"고등학교","operational_status":"운영","office_of_edu_code":7310000,"office_of_edu_name":"인천광역시교육청","latitude":37.44596571,"longitude":126.6628662},
{"school_id":"B000012281","school_name":"인천세원고등학교","school_classification":"고등학교","operational_status":"운영","office_of_edu_code":7310000,"office_of_edu_name":"인천광역시교육청","latitude":37.55161396,"longitude":126.7447093},
{"school_id":"B000012271","school_name":"부개고등학교","school_classification":"고등학교","operational_status":"운영","office_of_edu_code":7310000,"office_of_edu_name":"인천광역시교육청","latitude":37.49221894,"longitude":126.7380466},
{"school_id":"B000012268","school_name":"인천산곡고등학교","school_classification":"고등학교","operational_status":"운영","office_of_edu_code":7310000,"office_of_edu_name":"인천광역시교육청","latitude":37.50320265,"longitude":126.7131951},
{"school_id":"B000012544","school_name":"용인홍천고등학교","school_classification":"고등학교","operational_status":"운영","office_of_edu_code":7530000,"office_of_edu_name":"경기도교육청","latitude":37.32221072,"longitude":127.0823971},
{"school_id":"B000011438","school_name":"계산공업고등학교","school_classification":"고등학교","operational_status":"운영","office_of_edu_code":7310000,"office_of_edu_name":"인천광역시교육청","latitude":37.53481361,"longitude":126.7397141},
{"school_id":"B000012586","school_name":"진위고등학교","school_classification":"고등학교","operational_status":"운영","office_of_edu_code":7530000,"office_of_edu_name":"경기도교육청","latitude":37.10991471,"longitude":127.0694297},
{"school_id":"B000012469","school_name":"숭신여자고등학교","school_classification":"고등학교","operational_status":"운영","office_of_edu_code":7530000,"office_of_edu_name":"경기도교육청","latitude":37.45026861,"longitude":127.1700177},
{"school_id":"B000011852","school_name":"수원하이텍고등학교","school_classification":"고등학교","operational_status":"운영","office_of_edu_code":7530000,"office_of_edu_name":"경기도교육청","latitude":37.25629389,"longitude":127.0812925},
{"school_id":"B000013524","school_name":"인천예일고등학교","school_classification":"고등학교","operational_status":"운영","office_of_edu_code":7310000,"office_of_edu_name":"인천광역시교육청","latitude":37.55422032,"longitude":126.7418712},
{"school_id":"B000012713","school_name":"효자고등학교","school_classification":"고등학교","operational_status":"운영","office_of_edu_code":7530000,"office_of_edu_name":"경기도교육청","latitude":37.75315107,"longitude":127.0766329},
{"school_id":"B000012492","school_name":"덕산고등학교","school_classification":"고등학교","operational_status":"운영","office_of_edu_code":7530000,"office_of_edu_name":"경기도교육청","latitude":37.53080238,"longitude":126.7896968},
{"school_id":"B000011859","school_name":"경기외국어고등학교","school_classification":"고등학교","operational_status":"운영","office_of_edu_code":7530000,"office_of_edu_name":"경기도교육청","latitude":37.34807009,"longitude":126.9597494},
{"school_id":"B000012578","school_name":"한광여자고등학교","school_classification":"고등학교","operational_status":"운영","office_of_edu_code":7530000,"office_of_edu_name":"경기도교육청","latitude":36.99789035,"longitude":127.0960037},
{"school_id":"B000022835","school_name":"인천해원고등학교","school_classification":"고등학교","operational_status":"운영","office_of_edu_code":7310000,"office_of_edu_name":"인천광역시교육청","latitude":37.52816764,"longitude":126.6275858},
{"school_id":"B000011490","school_name":"이우고등학교","school_classification":"고등학교","operational_status":"운영","office_of_edu_code":7530000,"office_of_edu_name":"경기도교육청","latitude":37.35324326,"longitude":127.090941},
{"school_id":"B000012474","school_name":"태원고등학교","school_classification":"고등학교","operational_status":"운영","office_of_edu_code":7530000,"office_of_edu_name":"경기도교육청","latitude":37.40391632,"longitude":127.1290213},
{"school_id":"B000012593","school_name":"능동고등학교","school_classification":"고등학교","operational_status":"운영","office_of_edu_code":7530000,"office_of_edu_name":"경기도교육청","latitude":37.21390891,"longitude":127.0575058},
{"school_id":"B000012588","school_name":"남양고등학교","school_classification":"고등학교","operational_status":"운영","office_of_edu_code":7530000,"office_of_edu_name":"경기도교육청","latitude":37.2079709,"longitude":126.8234064},
{"school_id":"B000012232","school_name":"동산고등학교","school_classification":"고등학교","operational_status":"운영","office_of_edu_code":7310000,"office_of_edu_name":"인천광역시교육청","latitude":37.47303977,"longitude":126.6488935},
{"school_id":"B000012239","school_name":"인항고등학교","school_classification":"고등학교","operational_status":"운영","office_of_edu_code":7310000,"office_of_edu_name":"인천광역시교육청","latitude":37.44681429,"longitude":126.6407082},
{"school_id":"B000011526","school_name":"한국애니메이션고등학교","school_classification":"고등학교","operational_status":"운영","office_of_edu_code":7530000,"office_of_edu_name":"경기도교육청","latitude":37.53493189,"longitude":127.2274428},
{"school_id":"B000025808","school_name":"안산국제비즈니스고등학교","school_classification":"고등학교","operational_status":"운영","office_of_edu_code":7530000,"office_of_edu_name":"경기도교육청","latitude":37.36094704,"longitude":126.8741442},
{"school_id":"B000012463","school_name":"서현고등학교","school_classification":"고등학교","operational_status":"운영","office_of_edu_code":7530000,"office_of_edu_name":"경기도교육청","latitude":37.38222205,"longitude":127.1240595},
{"school_id":"B000012442","school_name":"영덕고등학교","school_classification":"고등학교","operational_status":"운영","office_of_edu_code":7530000,"office_of_edu_name":"경기도교육청","latitude":37.25242219,"longitude":127.0684717},
{"school_id":"B000012597","school_name":"봉담고등학교","school_classification":"고등학교","operational_status":"운영","office_of_edu_code":7530000,"office_of_edu_name":"경기도교육청","latitude":37.21786869,"longitude":126.9538902},
{"school_id":"B000012540","school_name":"보정고등학교","school_classification":"고등학교","operational_status":"운영","office_of_edu_code":7530000,"office_of_edu_name":"경기도교육청","latitude":37.31390108,"longitude":127.1096482},
{"school_id":"B000012561","school_name":"백운고등학교","school_classification":"고등학교","operational_status":"운영","office_of_edu_code":7530000,"office_of_edu_name":"경기도교육청","latitude":37.38788839,"longitude":126.9866943},
{"school_id":"B000011857","school_name":"안양예술고등학교","school_classification":"고등학교","operational_status":"운영","office_of_edu_code":7530000,"office_of_edu_name":"경기도교육청","latitude":37.39580704,"longitude":126.9114168},
{"school_id":"B000012460","school_name":"불곡고등학교","school_classification":"고등학교","operational_status":"운영","office_of_edu_code":7530000,"office_of_edu_name":"경기도교육청","latitude":37.34848033,"longitude":127.1185237},
{"school_id":"B000012616","school_name":"광주중앙고등학교","school_classification":"고등학교","operational_status":"운영","office_of_edu_code":7530000,"office_of_edu_name":"경기도교육청","latitude":37.40347289,"longitude":127.2579445},
{"school_id":"B000011513","school_name":"경기자동차과학고등학교","school_classification":"고등학교","operational_status":"운영","office_of_edu_code":7530000,"office_of_edu_name":"경기도교육청","latitude":37.41429863,"longitude":126.8398538},
{"school_id":"B000012521","school_name":"초지고등학교","school_classification":"고등학교","operational_status":"운영","office_of_edu_code":7530000,"office_of_edu_name":"경기도교육청","latitude":37.31002122,"longitude":126.8110074},
{"school_id":"B000012236","school_name":"인천고등학교","school_classification":"고등학교","operational_status":"운영","office_of_edu_code":7310000,"office_of_edu_name":"인천광역시교육청","latitude":37.45295893,"longitude":126.6913054},
{"school_id":"B000011511","school_name":"경기스마트고등학교","school_classification":"고등학교","operational_status":"운영","office_of_edu_code":7530000,"office_of_edu_name":"경기도교육청","latitude":37.3432388,"longitude":126.7523469},
{"school_id":"B000012750","school_name":"가평고등학교","school_classification":"고등학교","operational_status":"운영","office_of_edu_code":7530000,"office_of_edu_name":"경기도교육청","latitude":37.81828429,"longitude":127.5130855},
{"school_id":"B000012461","school_name":"늘푸른고등학교","school_classification":"고등학교","operational_status":"운영","office_of_edu_code":7530000,"office_of_edu_name":"경기도교육청","latitude":37.37332701,"longitude":127.1053275},
{"school_id":"B000023195","school_name":"광휘고등학교","school_classification":"고등학교","operational_status":"운영","office_of_edu_code":7530000,"office_of_edu_name":"경기도교육청","latitude":37.4290157,"longitude":126.8818263},
{"school_id":"B000012532","school_name":"신봉고등학교","school_classification":"고등학교","operational_status":"운영","office_of_edu_code":7530000,"office_of_edu_name":"경기도교육청","latitude":37.32774897,"longitude":127.0629561},
{"school_id":"B000012584","school_name":"현화고등학교","school_classification":"고등학교","operational_status":"운영","office_of_edu_code":7530000,"office_of_edu_name":"경기도교육청","latitude":36.97877848,"longitude":126.9170752},
{"school_id":"B000011431","school_name":"인천뷰티예술고등학교","school_classification":"고등학교","operational_status":"운영","office_of_edu_code":7310000,"office_of_edu_name":"인천광역시교육청","latitude":37.40393222,"longitude":126.6713019},
{"school_id":"B000012470","school_name":"분당영덕여자고등학교","school_classification":"고등학교","operational_status":"운영","office_of_edu_code":7530000,"office_of_edu_name":"경기도교육청","latitude":37.40529859,"longitude":127.1394071},
{"school_id":"B000011482","school_name":"삼일상업고등학교","school_classification":"고등학교","operational_status":"운영","office_of_edu_code":7530000,"office_of_edu_name":"경기도교육청","latitude":37.28638393,"longitude":127.0196791},
{"school_id":"B000012755","school_name":"연천고등학교","school_classification":"고등학교","operational_status":"운영","office_of_edu_code":7530000,"office_of_edu_name":"경기도교육청","latitude":38.10822391,"longitude":127.0766731},
{"school_id":"B000012535","school_name":"보라고등학교","school_classification":"고등학교","operational_status":"운영","office_of_edu_code":7530000,"office_of_edu_name":"경기도교육청","latitude":37.25145551,"longitude":127.1105881},
{"school_id":"B000012721","school_name":"운정고등학교","school_classification":"고등학교","operational_status":"운영","office_of_edu_code":7530000,"office_of_edu_name":"경기도교육청","latitude":37.72204425,"longitude":126.7363199},
{"school_id":"B000011481","school_name":"삼일공업고등학교","school_classification":"고등학교","operational_status":"운영","office_of_edu_code":7530000,"office_of_edu_name":"경기도교육청","latitude":37.28554473,"longitude":127.0205554},
{"school_id":"B000013521","school_name":"인천공항고등학교","school_classification":"고등학교","operational_status":"운영","office_of_edu_code":7310000,"office_of_edu_name":"인천광역시교육청","latitude":37.49763102,"longitude":126.485927},
{"school_id":"B000012444","school_name":"동원고등학교","school_classification":"고등학교","operational_status":"운영","office_of_edu_code":7530000,"office_of_edu_name":"경기도교육청","latitude":37.31981901,"longitude":126.9824035},
{"school_id":"B000011476","school_name":"수원농생명과학고등학교","school_classification":"고등학교","operational_status":"운영","office_of_edu_code":7530000,"office_of_edu_name":"경기도교육청","latitude":37.29515359,"longitude":127.0194502},
{"school_id":"B000012296","school_name":"강화고등학교","school_classification":"고등학교","operational_status":"운영","office_of_edu_code":7310000,"office_of_edu_name":"인천광역시교육청","latitude":37.74802846,"longitude":126.4738138},
{"school_id":"B000011545","school_name":"한국외식과학고등학교","school_classification":"고등학교","operational_status":"운영","office_of_edu_code":7530000,"office_of_edu_name":"경기도교육청","latitude":37.89719133,"longitude":126.9798514},
{"school_id":"B000012574","school_name":"평택여자고등학교","school_classification":"고등학교","operational_status":"운영","office_of_edu_code":7530000,"office_of_edu_name":"경기도교육청","latitude":37.01260333,"longitude":127.0897392},
{"school_id":"B000025768","school_name":"인천마전고등학교","school_classification":"고등학교","operational_status":"운영","office_of_edu_code":7310000,"office_of_edu_name":"인천광역시교육청","latitude":37.61082193,"longitude":126.6643328},
{"school_id":"B000012270","school_name":"인천부흥고등학교","school_classification":"고등학교","operational_status":"운영","office_of_edu_code":7310000,"office_of_edu_name":"인천광역시교육청","latitude":37.4912189,"longitude":126.7366563},
{"school_id":"B000011849","school_name":"경기체육고등학교","school_classification":"고등학교","operational_status":"운영","office_of_edu_code":7530000,"office_of_edu_name":"경기도교육청","latitude":37.30395971,"longitude":126.9785339},
{"school_id":"B000012468","school_name":"성일고등학교","school_classification":"고등학교","operational_status":"운영","office_of_edu_code":7530000,"office_of_edu_name":"경기도교육청","latitude":37.43487853,"longitude":127.1448205},
{"school_id":"B000012564","school_name":"시흥고등학교","school_classification":"고등학교","operational_status":"운영","office_of_edu_code":7530000,"office_of_edu_name":"경기도교육청","latitude":37.38959641,"longitude":126.8140881},
{"school_id":"B000012290","school_name":"가림고등학교","school_classification":"고등학교","operational_status":"운영","office_of_edu_code":7310000,"office_of_edu_name":"인천광역시교육청","latitude":37.49261929,"longitude":126.6812015},
{"school_id":"B000012476","school_name":"야탑고등학교","school_classification":"고등학교","operational_status":"운영","office_of_edu_code":7530000,"office_of_edu_name":"경기도교육청","latitude":37.40376833,"longitude":127.1535645},
{"school_id":"B000012432","school_name":"조원고등학교","school_classification":"고등학교","operational_status":"운영","office_of_edu_code":7530000,"office_of_edu_name":"경기도교육청","latitude":37.30734419,"longitude":127.0156673},
{"school_id":"B000012557","school_name":"수리고등학교","school_classification":"고등학교","operational_status":"운영","office_of_edu_code":7530000,"office_of_edu_name":"경기도교육청","latitude":37.35526201,"longitude":126.9197712},
{"school_id":"B000012446","school_name":"수원고등학교","school_classification":"고등학교","operational_status":"운영","office_of_edu_code":7530000,"office_of_edu_name":"경기도교육청","latitude":37.26713365,"longitude":127.0174147},
{"school_id":"B000012508","school_name":"신성고등학교","school_classification":"고등학교","operational_status":"운영","office_of_edu_code":7530000,"office_of_edu_name":"경기도교육청","latitude":37.38415457,"longitude":126.918832},
{"school_id":"B000012457","school_name":"보평고등학교","school_classification":"고등학교","operational_status":"운영","office_of_edu_code":7530000,"office_of_edu_name":"경기도교육청","latitude":37.39419168,"longitude":127.1176047},
{"school_id":"B000012573","school_name":"평택고등학교","school_classification":"고등학교","operational_status":"운영","office_of_edu_code":7530000,"office_of_edu_name":"경기도교육청","latitude":36.989735,"longitude":127.1083223},
{"school_id":"B000012462","school_name":"분당중앙고등학교","school_classification":"고등학교","operational_status":"운영","office_of_edu_code":7530000,"office_of_edu_name":"경기도교육청","latitude":37.36064712,"longitude":127.1246258},
{"school_id":"B000012571","school_name":"정왕고등학교","school_classification":"고등학교","operational_status":"운영","office_of_edu_code":7530000,"office_of_edu_name":"경기도교육청","latitude":37.35044006,"longitude":126.7284476},
{"school_id":"B000012526","school_name":"성안고등학교","school_classification":"고등학교","operational_status":"운영","office_of_edu_code":7530000,"office_of_edu_name":"경기도교육청","latitude":37.30271205,"longitude":126.8425361},
{"school_id":"B000012610","school_name":"소하고등학교","school_classification":"고등학교","operational_status":"운영","office_of_edu_code":7530000,"office_of_edu_name":"경기도교육청","latitude":37.44724606,"longitude":126.8875821},
{"school_id":"B000012263","school_name":"부광고등학교","school_classification":"고등학교","operational_status":"운영","office_of_edu_code":7310000,"office_of_edu_name":"인천광역시교육청","latitude":37.48841975,"longitude":126.7030714},
{"school_id":"B000012273","school_name":"인천영선고등학교","school_classification":"고등학교","operational_status":"운영","office_of_edu_code":7310000,"office_of_edu_name":"인천광역시교육청","latitude":37.51594529,"longitude":126.743904},
{"school_id":"B000012439","school_name":"망포고등학교","school_classification":"고등학교","operational_status":"운영","office_of_edu_code":7530000,"office_of_edu_name":"경기도교육청","latitude":37.2338274,"longitude":127.0464357},
{"school_id":"B000011477","school_name":"경기대명고등학교","school_classification":"고등학교","operational_status":"운영","office_of_edu_code":7530000,"office_of_edu_name":"경기도교육청","latitude":37.29601975,"longitude":126.9399849},
{"school_id":"B000012604","school_name":"운암고등학교","school_classification":"고등학교","operational_status":"운영","office_of_edu_code":7530000,"office_of_edu_name":"경기도교육청","latitude":37.14383484,"longitude":127.0750332},
{"school_id":"B000011850","school_name":"경기과학고등학교","school_classification":"고등학교","operational_status":"운영","office_of_edu_code":7530000,"office_of_edu_name":"경기도교육청","latitude":37.308815,"longitude":127.0064083},
{"school_id":"B000023220","school_name":"분당경영고등학교","school_classification":"고등학교","operational_status":"운영","office_of_edu_code":7530000,"office_of_edu_name":"경기도교육청","latitude":37.35502581,"longitude":127.1096108},
{"school_id":"B000012615","school_name":"광남고등학교","school_classification":"고등학교","operational_status":"운영","office_of_edu_code":7530000,"office_of_edu_name":"경기도교육청","latitude":37.38464209,"longitude":127.2378011},
{"school_id":"B000012554","school_name":"포곡고등학교","school_classification":"고등학교","operational_status":"운영","office_of_edu_code":7530000,"office_of_edu_name":"경기도교육청","latitude":37.2725912,"longitude":127.2276557},
{"school_id":"B000012464","school_name":"수내고등학교","school_classification":"고등학교","operational_status":"운영","office_of_edu_code":7530000,"office_of_edu_name":"경기도교육청","latitude":37.36611486,"longitude":127.1298639},
{"school_id":"B000012427","school_name":"수원여자고등학교","school_classification":"고등학교","operational_status":"운영","office_of_edu_code":7530000,"office_of_edu_name":"경기도교육청","latitude":37.2768282,"longitude":127.004355},
{"school_id":"B000011509","school_name":"경기폴리텍고등학교","school_classification":"고등학교","operational_status":"운영","office_of_edu_code":7530000,"office_of_edu_name":"경기도교육청","latitude":37.36019041,"longitude":126.9243504},
{"school_id":"B000012717","school_name":"동국대학교사범대학부속영석고등학교","school_classification":"고등학교","operational_status":"운영","office_of_edu_code":7530000,"office_of_edu_name":"경기도교육청","latitude":37.73587133,"longitude":127.0749104},
{"school_id":"B000011425","school_name":"도화기계공업고등학교","school_classification":"고등학교","operational_status":"운영","office_of_edu_code":7310000,"office_of_edu_name":"인천광역시교육청","latitude":37.47395988,"longitude":126.6519987},
{"school_id":"B000025234","school_name":"인천과학예술영재학교","school_classification":"고등학교","operational_status":"운영","office_of_edu_code":7310000,"office_of_edu_name":"인천광역시교육청","latitude":37.38199933,"longitude":126.6301396},
{"school_id":"B000012269","school_name":"인천진산과학고등학교","school_classification":"고등학교","operational_status":"운영","office_of_edu_code":7310000,"office_of_edu_name":"인천광역시교육청","latitude":37.51327242,"longitude":126.7437134},
{"school_id":"B000012286","school_name":"인천청라고등학교","school_classification":"고등학교","operational_status":"운영","office_of_edu_code":7310000,"office_of_edu_name":"인천광역시교육청","latitude":37.53720827,"longitude":126.6607696},
{"school_id":"B000012429","school_name":"천천고등학교","school_classification":"고등학교","operational_status":"운영","office_of_edu_code":7530000,"office_of_edu_name":"경기도교육청","latitude":37.2994533,"longitude":126.982976},
{"school_id":"B000023069","school_name":"미사고등학교","school_classification":"고등학교","operational_status":"운영","office_of_edu_code":7530000,"office_of_edu_name":"경기도교육청","latitude":37.57050336,"longitude":127.1933009},
{"school_id":"B000012572","school_name":"신천고등학교","school_classification":"고등학교","operational_status":"운영","office_of_edu_code":7530000,"office_of_edu_name":"경기도교육청","latitude":37.4351037,"longitude":126.7783978},
{"school_id":"B000012512","school_name":"백영고등학교","school_classification":"고등학교","operational_status":"운영","office_of_edu_code":7530000,"office_of_edu_name":"경기도교육청","latitude":37.386458,"longitude":126.9649474},
{"school_id":"B000012255","school_name":"석정여자고등학교","school_classification":"고등학교","operational_status":"운영","office_of_edu_code":7310000,"office_of_edu_name":"인천광역시교육청","latitude":37.46866507,"longitude":126.694192},
{"school_id":"B000012262","school_name":"부평고등학교","school_classification":"고등학교","operational_status":"운영","office_of_edu_code":7310000,"office_of_edu_name":"인천광역시교육청","latitude":37.50227408,"longitude":126.7276188},
{"school_id":"B000012282","school_name":"작전여자고등학교","school_classification":"고등학교","operational_status":"운영","office_of_edu_code":7310000,"office_of_edu_name":"인천광역시교육청","latitude":37.53213347,"longitude":126.7295556},
{"school_id":"B000012529","school_name":"안산고등학교","school_classification":"고등학교","operational_status":"운영","office_of_edu_code":7530000,"office_of_edu_name":"경기도교육청","latitude":37.36050434,"longitude":126.8736141},
{"school_id":"B000011510","school_name":"군포e비즈니스고등학교","school_classification":"고등학교","operational_status":"운영","office_of_edu_code":7530000,"office_of_edu_name":"경기도교육청","latitude":37.36305308,"longitude":126.9185422},
{"school_id":"B000012560","school_name":"군포고등학교","school_classification":"고등학교","operational_status":"운영","office_of_edu_code":7530000,"office_of_edu_name":"경기도교육청","latitude":37.35760393,"longitude":126.9404491},
{"school_id":"B000022912","school_name":"초월고등학교","school_classification":"고등학교","operational_status":"운영","office_of_edu_code":7530000,"office_of_edu_name":"경기도교육청","latitude":37.3876834,"longitude":127.2898183},
{"school_id":"B000012752","school_name":"조종고등학교","school_classification":"고등학교","operational_status":"운영","office_of_edu_code":7530000,"office_of_edu_name":"경기도교육청","latitude":37.81435909,"longitude":127.3466138},
{"school_id":"B000012435","school_name":"율천고등학교","school_classification":"고등학교","operational_status":"운영","office_of_edu_code":7530000,"office_of_edu_name":"경기도교육청","latitude":37.28782913,"longitude":126.978878},
{"school_id":"B000012733","school_name":"경기세무고등학교","school_classification":"고등학교","operational_status":"운영","office_of_edu_code":7530000,"office_of_edu_name":"경기도교육청","latitude":37.95431778,"longitude":126.9145345},
{"school_id":"B000012528","school_name":"안산강서고등학교","school_classification":"고등학교","operational_status":"운영","office_of_edu_code":7530000,"office_of_edu_name":"경기도교육청","latitude":37.33479362,"longitude":126.8179386},
{"school_id":"B000013547","school_name":"함현고등학교","school_classification":"고등학교","operational_status":"운영","office_of_edu_code":7530000,"office_of_edu_name":"경기도교육청","latitude":37.36619361,"longitude":126.7384563},
{"school_id":"B000012639","school_name":"부원고등학교","school_classification":"고등학교","operational_status":"운영","office_of_edu_code":7530000,"office_of_edu_name":"경기도교육청","latitude":37.11673313,"longitude":127.619479},
{"school_id":"B000012448","school_name":"영신여자고등학교","school_classification":"고등학교","operational_status":"운영","office_of_edu_code":7530000,"office_of_edu_name":"경기도교육청","latitude":37.2419379,"longitude":126.9669823},
{"school_id":"B000012449","school_name":"영복여자고등학교","school_classification":"고등학교","operational_status":"운영","office_of_edu_code":7530000,"office_of_edu_name":"경기도교육청","latitude":37.28562481,"longitude":127.0016721},
{"school_id":"B000012563","school_name":"시흥능곡고등학교","school_classification":"고등학교","operational_status":"운영","office_of_edu_code":7530000,"office_of_edu_name":"경기도교육청","latitude":37.37393847,"longitude":126.8119474},
{"school_id":"B000026781","school_name":"별가람고등학교","school_classification":"고등학교","operational_status":"운영","office_of_edu_code":7530000,"office_of_edu_name":"경기도교육청","latitude":37.6614376,"longitude":127.1221742},
{"school_id":"B000011499","school_name":"근명고등학교","school_classification":"고등학교","operational_status":"운영","office_of_edu_code":7530000,"office_of_edu_name":"경기도교육청","latitude":37.39354124,"longitude":126.9200136},
{"school_id":"B000011502","school_name":"경일관광경영고등학교","school_classification":"고등학교","operational_status":"운영","office_of_edu_code":7530000,"office_of_edu_name":"경기도교육청","latitude":37.34794915,"longitude":126.8049706},
{"school_id":"B000012450","school_name":"영생고등학교","school_classification":"고등학교","operational_status":"운영","office_of_edu_code":7530000,"office_of_edu_name":"경기도교육청","latitude":37.30473311,"longitude":126.9742361},
{"school_id":"B000012433","school_name":"권선고등학교","school_classification":"고등학교","operational_status":"운영","office_of_edu_code":7530000,"office_of_edu_name":"경기도교육청","latitude":37.25278194,"longitude":127.0333651},
{"school_id":"B000022601","school_name":"모락고등학교","school_classification":"고등학교","operational_status":"운영","office_of_edu_code":7530000,"office_of_edu_name":"경기도교육청","latitude":37.3699713,"longitude":126.9670058},
{"school_id":"B000012617","school_name":"경화여자고등학교","school_classification":"고등학교","operational_status":"운영","office_of_edu_code":7530000,"office_of_edu_name":"경기도교육청","latitude":37.41824307,"longitude":127.2639914},
{"school_id":"B000011489","school_name":"성일정보고등학교","school_classification":"고등학교","operational_status":"운영","office_of_edu_code":7530000,"office_of_edu_name":"경기도교육청","latitude":37.43487853,"longitude":127.1448205},
{"school_id":"B000012507","school_name":"양명고등학교","school_classification":"고등학교","operational_status":"운영","office_of_edu_code":7530000,"office_of_edu_name":"경기도교육청","latitude":37.40864037,"longitude":126.9200167},
{"school_id":"B000011478","school_name":"수원정보과학고등학교","school_classification":"고등학교","operational_status":"운영","office_of_edu_code":7530000,"office_of_edu_name":"경기도교육청","latitude":37.27608009,"longitude":127.0497818},
{"school_id":"B000012431","school_name":"수일고등학교","school_classification":"고등학교","operational_status":"운영","office_of_edu_code":7530000,"office_of_edu_name":"경기도교육청","latitude":37.30771516,"longitude":127.0180455},
{"school_id":"B000026110","school_name":"한빛고등학교","school_classification":"고등학교","operational_status":"운영","office_of_edu_code":7530000,"office_of_edu_name":"경기도교육청","latitude":37.7134805,"longitude":126.7548886},
{"school_id":"B000012276","school_name":"명신여자고등학교","school_classification":"고등학교","operational_status":"운영","office_of_edu_code":7310000,"office_of_edu_name":"인천광역시교육청","latitude":37.50460448,"longitude":126.6939278},
{"school_id":"B000011503","school_name":"한국디지털미디어고등학교","school_classification":"고등학교","operational_status":"운영","office_of_edu_code":7530000,"office_of_edu_name":"경기도교육청","latitude":37.3423166,"longitude":126.8309423},
{"school_id":"B000012607","school_name":"운산고등학교","school_classification":"고등학교","operational_status":"운영","office_of_edu_code":7530000,"office_of_edu_name":"경기도교육청","latitude":37.45431392,"longitude":126.8833501},
{"school_id":"B000012602","school_name":"세교고등학교","school_classification":"고등학교","operational_status":"운영","office_of_edu_code":7530000,"office_of_edu_name":"경기도교육청","latitude":37.17800671,"longitude":127.0533473},
{"school_id":"B000012600","school_name":"비봉고등학교","school_classification":"고등학교","operational_status":"운영","office_of_edu_code":7530000,"office_of_edu_name":"경기도교육청","latitude":37.23681779,"longitude":126.8733283},
{"school_id":"B000011856","school_name":"안양외국어고등학교","school_classification":"고등학교","operational_status":"운영","office_of_edu_code":7530000,"office_of_edu_name":"경기도교육청","latitude":37.39571621,"longitude":126.9090332},
{"school_id":"B000023227","school_name":"성남금융고등학교","school_classification":"고등학교","operational_status":"운영","office_of_edu_code":7530000,"office_of_edu_name":"경기도교육청","latitude":37.41377813,"longitude":127.1386738},
{"school_id":"B000012437","school_name":"매원고등학교","school_classification":"고등학교","operational_status":"운영","office_of_edu_code":7530000,"office_of_edu_name":"경기도교육청","latitude":37.26565476,"longitude":127.0545337},
{"school_id":"B000012441","school_name":"태장고등학교","school_classification":"고등학교","operational_status":"운영","office_of_edu_code":7530000,"office_of_edu_name":"경기도교육청","latitude":37.24936938,"longitude":127.0594286},
{"school_id":"B000012513","school_name":"과천중앙고등학교","school_classification":"고등학교","operational_status":"운영","office_of_edu_code":7530000,"office_of_edu_name":"경기도교육청","latitude":37.42301485,"longitude":126.9865702},
{"school_id":"B000012613","school_name":"진성고등학교","school_classification":"고등학교","operational_status":"운영","office_of_edu_code":7530000,"office_of_edu_name":"경기도교육청","latitude":37.46950279,"longitude":126.8767614},
{"school_id":"B000023257","school_name":"이의고등학교","school_classification":"고등학교","operational_status":"운영","office_of_edu_code":7530000,"office_of_edu_name":"경기도교육청","latitude":37.29235868,"longitude":127.0711898},
{"school_id":"B000011854","school_name":"계원예술고등학교","school_classification":"고등학교","operational_status":"운영","office_of_edu_code":7530000,"office_of_edu_name":"경기도교육청","latitude":37.35836192,"longitude":127.1155061},
{"school_id":"B000011828","school_name":"인천과학고등학교","school_classification":"고등학교","operational_status":"운영","office_of_edu_code":7310000,"office_of_edu_name":"인천광역시교육청","latitude":37.49195555,"longitude":126.5082571},
{"school_id":"B000012424","school_name":"호매실고등학교","school_classification":"고등학교","operational_status":"운영","office_of_edu_code":7530000,"office_of_edu_name":"경기도교육청","latitude":37.26492553,"longitude":126.9553373},
{"school_id":"B000012556","school_name":"용호고등학교","school_classification":"고등학교","operational_status":"운영","office_of_edu_code":7530000,"office_of_edu_name":"경기도교육청","latitude":37.3418258,"longitude":126.9393348},
{"school_id":"B000026109","school_name":"한민고등학교","school_classification":"고등학교","operational_status":"운영","office_of_edu_code":7530000,"office_of_edu_name":"경기도교육청","latitude":37.75805679,"longitude":126.8580362},
{"school_id":"B000011833","school_name":"미추홀외국어고등학교","school_classification":"고등학교","operational_status":"운영","office_of_edu_code":7310000,"office_of_edu_name":"인천광역시교육청","latitude":37.38961737,"longitude":126.7244414},
{"school_id":"B000012577","school_name":"한광고등학교","school_classification":"고등학교","operational_status":"운영","office_of_edu_code":7530000,"office_of_edu_name":"경기도교육청","latitude":36.99789035,"longitude":127.0960037},
{"school_id":"B000012568","school_name":"시흥매화고등학교","school_classification":"고등학교","operational_status":"운영","office_of_edu_code":7530000,"office_of_edu_name":"경기도교육청","latitude":37.41607446,"longitude":126.815906},
{"school_id":"B000011853","school_name":"성남외국어고등학교","school_classification":"고등학교","operational_status":"운영","office_of_edu_code":7530000,"office_of_edu_name":"경기도교육청","latitude":37.37860539,"longitude":127.0965798},
{"school_id":"B000011851","school_name":"수원외국어고등학교","school_classification":"고등학교","operational_status":"운영","office_of_edu_code":7530000,"office_of_edu_name":"경기도교육청","latitude":37.29599326,"longitude":127.0351158},
{"school_id":"B000012471","school_name":"효성고등학교","school_classification":"고등학교","operational_status":"운영","office_of_edu_code":7530000,"office_of_edu_name":"경기도교육청","latitude":37.4502211,"longitude":127.1040748},
{"school_id":"B000012665","school_name":"대화고등학교","school_classification":"고등학교","operational_status":"운영","office_of_edu_code":7530000,"office_of_edu_name":"경기도교육청","latitude":37.66846943,"longitude":126.732143},
{"school_id":"B000012438","school_name":"효원고등학교","school_classification":"고등학교","operational_status":"운영","office_of_edu_code":7530000,"office_of_edu_name":"경기도교육청","latitude":37.25941827,"longitude":127.0390512},
{"school_id":"B000012737","school_name":"보영여자고등학교","school_classification":"고등학교","operational_status":"운영","office_of_edu_code":7530000,"office_of_edu_name":"경기도교육청","latitude":37.91198659,"longitude":127.0610716},
{"school_id":"B000012603","school_name":"운천고등학교","school_classification":"고등학교","operational_status":"운영","office_of_edu_code":7530000,"office_of_edu_name":"경기도교육청","latitude":37.15598785,"longitude":127.0803516},
{"school_id":"B000012751","school_name":"청평고등학교","school_classification":"고등학교","operational_status":"운영","office_of_edu_code":7530000,"office_of_edu_name":"경기도교육청","latitude":37.73148416,"longitude":127.4150054},
{"school_id":"B000012595","school_name":"안화고등학교","school_classification":"고등학교","operational_status":"운영","office_of_edu_code":7530000,"office_of_edu_name":"경기도교육청","latitude":37.2119228,"longitude":127.0484625},
{"school_id":"B000012708","school_name":"토평고등학교","school_classification":"고등학교","operational_status":"운영","office_of_edu_code":7530000,"office_of_edu_name":"경기도교육청","latitude":37.5893538,"longitude":127.1431849},
{"school_id":"B000012587","school_name":"향일고등학교","school_classification":"고등학교","operational_status":"운영","office_of_edu_code":7530000,"office_of_edu_name":"경기도교육청","latitude":37.12928624,"longitude":126.9178966},
{"school_id":"B000023109","school_name":"청북고등학교","school_classification":"고등학교","operational_status":"운영","office_of_edu_code":7530000,"office_of_edu_name":"경기도교육청","latitude":37.0225608,"longitude":126.9198247},
{"school_id":"B000012609","school_name":"광문고등학교","school_classification":"고등학교","operational_status":"운영","office_of_edu_code":7530000,"office_of_edu_name":"경기도교육청","latitude":37.46462137,"longitude":126.8495912},
{"school_id":"B000026194","school_name":"옥정고등학교","school_classification":"고등학교","operational_status":"운영","office_of_edu_code":7530000,"office_of_edu_name":"경기도교육청","latitude":37.82768859,"longitude":127.0887218},
{"school_id":"B000013548","school_name":"세마고등학교","school_classification":"고등학교","operational_status":"운영","office_of_edu_code":7530000,"office_of_edu_name":"경기도교육청","latitude":37.18054088,"longitude":127.040997},
{"school_id":"B000012428","school_name":"대평고등학교","school_classification":"고등학교","operational_status":"운영","office_of_edu_code":7530000,"office_of_edu_name":"경기도교육청","latitude":37.29535733,"longitude":126.988126},
{"school_id":"B000011522","school_name":"오산정보고등학교","school_classification":"고등학교","operational_status":"운영","office_of_edu_code":7530000,"office_of_edu_name":"경기도교육청","latitude":37.15389008,"longitude":127.059967},
{"school_id":"B000011486","school_name":"양영디지털고등학교","school_classification":"고등학교","operational_status":"운영","office_of_edu_code":7530000,"office_of_edu_name":"경기도교육청","latitude":37.37401753,"longitude":127.1400112},
{"school_id":"B000025533","school_name":"서천고등학교","school_classification":"고등학교","operational_status":"운영","office_of_edu_code":7530000,"office_of_edu_name":"경기도교육청","latitude":37.23410552,"longitude":127.069476},
{"school_id":"B000012608","school_name":"명문고등학교","school_classification":"고등학교","operational_status":"운영","office_of_edu_code":7530000,"office_of_edu_name":"경기도교육청","latitude":37.47057166,"longitude":126.8498885},
{"school_id":"B000012659","school_name":"청운고등학교","school_classification":"고등학교","operational_status":"운영","office_of_edu_code":7530000,"office_of_edu_name":"경기도교육청","latitude":37.55334405,"longitude":127.7114712},
{"school_id":"B000012754","school_name":"전곡고등학교","school_classification":"고등학교","operational_status":"운영","office_of_edu_code":7530000,"office_of_edu_name":"경기도교육청","latitude":38.03521317,"longitude":127.0692835},
{"school_id":"B000013553","school_name":"양주고등학교","school_classification":"고등학교","operational_status":"운영","office_of_edu_code":7530000,"office_of_edu_name":"경기도교육청","latitude":37.7949038,"longitude":127.1074447},
{"school_id":"B000012730","school_name":"파주고등학교","school_classification":"고등학교","operational_status":"운영","office_of_edu_code":7530000,"office_of_edu_name":"경기도교육청","latitude":37.85922282,"longitude":126.7806655},
{"school_id":"B000012425","school_name":"광교고등학교","school_classification":"고등학교","operational_status":"운영","office_of_edu_code":7530000,"office_of_edu_name":"경기도교육청","latitude":37.289728,"longitude":127.0485481},
{"school_id":"B000013522","school_name":"인천하늘고등학교","school_classification":"고등학교","operational_status":"운영","office_of_edu_code":7310000,"office_of_edu_name":"인천광역시교육청","latitude":37.49546571,"longitude":126.5070803},
{"school_id":"B000012447","school_name":"동우여자고등학교","school_classification":"고등학교","operational_status":"운영","office_of_edu_code":7530000,"office_of_edu_name":"경기도교육청","latitude":37.31981901,"longitude":126.9824035},
{"school_id":"B000011442","school_name":"강남영상미디어고등학교","school_classification":"고등학교","operational_status":"운영","office_of_edu_code":7310000,"office_of_edu_name":"인천광역시교육청","latitude":37.64167363,"longitude":126.4791248},
{"school_id":"B000011524","school_name":"경기항공고등학교","school_classification":"고등학교","operational_status":"운영","office_of_edu_code":7530000,"office_of_edu_name":"경기도교육청","latitude":37.47331347,"longitude":126.8570351},
{"school_id":"B000012697","school_name":"마석고등학교","school_classification":"고등학교","operational_status":"운영","office_of_edu_code":7530000,"office_of_edu_name":"경기도교육청","latitude":37.64380715,"longitude":127.2993146},
{"school_id":"B000012645","school_name":"안법고등학교","school_classification":"고등학교","operational_status":"운영","office_of_edu_code":7530000,"office_of_edu_name":"경기도교육청","latitude":37.01333556,"longitude":127.273268},
{"school_id":"B000012623","school_name":"김포제일공업고등학교","school_classification":"고등학교","operational_status":"운영","office_of_edu_code":7530000,"office_of_edu_name":"경기도교육청","latitude":37.6207331,"longitude":126.7107549},
{"school_id":"B000012703","school_name":"퇴계원고등학교","school_classification":"고등학교","operational_status":"운영","office_of_edu_code":7530000,"office_of_edu_name":"경기도교육청","latitude":37.6603944,"longitude":127.1450751},
{"school_id":"B000023241","school_name":"세종고등학교","school_classification":"고등학교","operational_status":"운영","office_of_edu_code":7530000,"office_of_edu_name":"경기도교육청","latitude":37.29549345,"longitude":127.6462791},
{"school_id":"B000012626","school_name":"김포고등학교","school_classification":"고등학교","operational_status":"운영","office_of_edu_code":7530000,"office_of_edu_name":"경기도교육청","latitude":37.61839978,"longitude":126.713009},
{"school_id":"B000011480","school_name":"매향여자정보고등학교","school_classification":"고등학교","operational_status":"운영","office_of_edu_code":7530000,"office_of_edu_name":"경기도교육청","latitude":37.28457355,"longitude":127.0186217},
{"school_id":"B000026138","school_name":"고촌고등학교","school_classification":"고등학교","operational_status":"운영","office_of_edu_code":7530000,"office_of_edu_name":"경기도교육청","latitude":37.60460551,"longitude":126.7499614},
{"school_id":"B000012451","school_name":"창현고등학교","school_classification":"고등학교","operational_status":"운영","office_of_edu_code":7530000,"office_of_edu_name":"경기도교육청","latitude":37.28490893,"longitude":127.0418566},
{"school_id":"B000011543","school_name":"세경고등학교","school_classification":"고등학교","operational_status":"운영","office_of_edu_code":7530000,"office_of_edu_name":"경기도교육청","latitude":37.83131463,"longitude":126.8299018},
{"school_id":"B000012301","school_name":"삼량고등학교","school_classification":"고등학교","operational_status":"운영","office_of_edu_code":7310000,"office_of_edu_name":"인천광역시교육청","latitude":37.71179563,"longitude":126.39281},
{"school_id":"B000012525","school_name":"송호고등학교","school_classification":"고등학교","operational_status":"운영","office_of_edu_code":7530000,"office_of_edu_name":"경기도교육청","latitude":37.31050267,"longitude":126.8452044},
{"school_id":"B000011435","school_name":"인천미래생활고등학교","school_classification":"고등학교","operational_status":"운영","office_of_edu_code":7310000,"office_of_edu_name":"인천광역시교육청","latitude":37.50056712,"longitude":126.7426846},
{"school_id":"B000012479","school_name":"부천여자고등학교","school_classification":"고등학교","operational_status":"운영","office_of_edu_code":7530000,"office_of_edu_name":"경기도교육청","latitude":37.48987335,"longitude":126.7617479},
{"school_id":"B000012456","school_name":"판교고등학교","school_classification":"고등학교","operational_status":"운영","office_of_edu_code":7530000,"office_of_edu_name":"경기도교육청","latitude":37.40514882,"longitude":127.1147726},
{"school_id":"B000023229","school_name":"솔터고등학교","school_classification":"고등학교","operational_status":"운영","office_of_edu_code":7530000,"office_of_edu_name":"경기도교육청","latitude":37.64179455,"longitude":126.6362439},
{"school_id":"B000023086","school_name":"위례고등학교","school_classification":"고등학교","operational_status":"운영","office_of_edu_code":7530000,"office_of_edu_name":"경기도교육청","latitude":37.4768754,"longitude":127.1508832},
{"school_id":"B000012724","school_name":"문산고등학교","school_classification":"고등학교","operational_status":"운영","office_of_edu_code":7530000,"office_of_edu_name":"경기도교육청","latitude":37.86299886,"longitude":126.7757779},
{"school_id":"B000023213","school_name":"송양고등학교","school_classification":"고등학교","operational_status":"운영","office_of_edu_code":7530000,"office_of_edu_name":"경기도교육청","latitude":37.75310988,"longitude":127.1065649},
{"school_id":"B000011532","school_name":"여주자영농업고등학교","school_classification":"고등학교","operational_status":"운영","office_of_edu_code":7530000,"office_of_edu_name":"경기도교육청","latitude":37.29575224,"longitude":127.620448},
{"school_id":"B000012527","school_name":"경안고등학교","school_classification":"고등학교","operational_status":"운영","office_of_edu_code":7530000,"office_of_edu_name":"경기도교육청","latitude":37.32519093,"longitude":126.8349272},
{"school_id":"B000012293","school_name":"인천원당고등학교","school_classification":"고등학교","operational_status":"운영","office_of_edu_code":7310000,"office_of_edu_name":"인천광역시교육청","latitude":37.59689277,"longitude":126.7048226},
{"school_id":"B000012509","school_name":"양명여자고등학교","school_classification":"고등학교","operational_status":"운영","office_of_edu_code":7530000,"office_of_edu_name":"경기도교육청","latitude":37.40697627,"longitude":126.9221725},
{"school_id":"B000012646","school_name":"가온고등학교","school_classification":"고등학교","operational_status":"운영","office_of_edu_code":7530000,"office_of_edu_name":"경기도교육청","latitude":36.98842094,"longitude":127.2760218},
{"school_id":"B000012627","school_name":"사우고등학교","school_classification":"고등학교","operational_status":"운영","office_of_edu_code":7530000,"office_of_edu_name":"경기도교육청","latitude":37.6192376,"longitude":126.72347},
{"school_id":"B000011421","school_name":"인천재능고등학교","school_classification":"고등학교","operational_status":"운영","office_of_edu_code":7310000,"office_of_edu_name":"인천광역시교육청","latitude":37.47553313,"longitude":126.6504734},
{"school_id":"B000012304","school_name":"대청고등학교","school_classification":"고등학교","operational_status":"운영","office_of_edu_code":7310000,"office_of_edu_name":"인천광역시교육청","latitude":37.8325852,"longitude":124.6939792},
{"school_id":"B000012689","school_name":"판곡고등학교","school_classification":"고등학교","operational_status":"운영","office_of_edu_code":7530000,"office_of_edu_name":"경기도교육청","latitude":37.66291081,"longitude":127.2428606},
{"school_id":"B000011531","school_name":"한겨레고등학교","school_classification":"고등학교","operational_status":"운영","office_of_edu_code":7530000,"office_of_edu_name":"경기도교육청","latitude":37.03064101,"longitude":127.4226896},
{"school_id":"B000011500","school_name":"안양여자상업고등학교","school_classification":"고등학교","operational_status":"운영","office_of_edu_code":7530000,"office_of_edu_name":"경기도교육청","latitude":37.39571621,"longitude":126.9090332},
{"school_id":"B000025646","school_name":"고림고등학교","school_classification":"고등학교","operational_status":"운영","office_of_edu_code":7530000,"office_of_edu_name":"경기도교육청","latitude":37.24717747,"longitude":127.2195504},
{"school_id":"B000022533","school_name":"도래울고등학교","school_classification":"고등학교","operational_status":"운영","office_of_edu_code":7530000,"office_of_edu_name":"경기도교육청","latitude":37.62858197,"longitude":126.8705724},
{"school_id":"B000012459","school_name":"이매고등학교","school_classification":"고등학교","operational_status":"운영","office_of_edu_code":7530000,"office_of_edu_name":"경기도교육청","latitude":37.3924009,"longitude":127.1209492},
{"school_id":"B000011419","school_name":"영종국제물류고등학교","school_classification":"고등학교","operational_status":"운영","office_of_edu_code":7310000,"office_of_edu_name":"인천광역시교육청","latitude":37.4900632,"longitude":126.5311287},
{"school_id":"B000012298","school_name":"교동고등학교","school_classification":"고등학교","operational_status":"운영","office_of_edu_code":7310000,"office_of_edu_name":"인천광역시교육청","latitude":37.77846268,"longitude":126.2843169},
{"school_id":"B000023119","school_name":"역곡고등학교","school_classification":"고등학교","operational_status":"운영","office_of_edu_code":7530000,"office_of_edu_name":"경기도교육청","latitude":37.49172578,"longitude":126.8096089},
{"school_id":"B000012619","school_name":"풍산고등학교","school_classification":"고등학교","operational_status":"운영","office_of_edu_code":7530000,"office_of_edu_name":"경기도교육청","latitude":37.55113292,"longitude":127.1996871},
{"school_id":"B000012453","school_name":"성남여자고등학교","school_classification":"고등학교","operational_status":"운영","office_of_edu_code":7530000,"office_of_edu_name":"경기도교육청","latitude":37.43615488,"longitude":127.1446087},