[{"school_id":"B000012208","school_name":"대구남산고등학교","school_classification":"고등학교","operational_status":"운영","office_of_edu_code":7240000,"office_of_edu_name":"대구광역시교육청","latitude":35.85731247,"longitude":128.6091788},
{"school_id":"B000011816","school_name":"부일외국어고등학교","school_classification":"고등학교","operational_status":"운영","office_of_edu_code":7150000,"office_of_edu_name":"부산광역시교육청","latitude":35.09073609,"longitude":129.0025604},
{"school_id":"B000012153","school_name":"삼성여자고등학교","school_classification":"고등학교","operational_status":"운영","office_of_edu_code":7150000,"office_of_edu_name":"부산광역시교육청","latitude":35.09422497,"longitude":128.9982328},
{"school_id":"B000012181","school_name":"영신고등학교","school_classification":"고등학교","operational_status":"운영","office_of_edu_code":7240000,"office_of_edu_name":"대구광역시교육청","latitude":35.92000422,"longitude":128.646424},
{"school_id":"B000013258","school_name":"영양여자고등학교","school_classification":"고등학교","operational_status":"운영","office_of_edu_code":8750000,"office_of_edu_name":"경상북도교육청","latitude":36.66188808,"longitude":129.1297626},
{"school_id":"B000013346","school_name":"김해임호고등학교","school_classification":"고등학교","operational_status":"운영","office_of_edu_code":9010000,"office_of_edu_name":"경상남도교육청","latitude":35.23826864,"longitude":128.8527201},
{"school_id":"B000012154","school_name":"성일여자고등학교","school_classification":"고등학교","operational_status":"운영","office_of_edu_code":7150000,"office_of_edu_name":"부산광역시교육청","latitude":35.08949951,"longitude":128.9800626},
{"school_id":"B000011810","school_name":"한국과학영재학교","school_classification":"고등학교","operational_status":"운영","office_of_edu_code":7150000,"office_of_edu_name":"부산광역시교육청","latitude":35.16520011,"longitude":129.0257844},
{"school_id":"B000013402","school_name":"옥종고등학교","school_classification":"고등학교","operational_status":"운영","office_of_edu_code":9010000,"office_of_edu_name":"경상남도교육청","latitude":35.17816307,"longitude":127.8845972},
{"school_id":"B000013375","school_name":"양산제일고등학교","school_classification":"고등학교","operational_status":"운영","office_of_edu_code":9010000,"office_of_edu_name":"경상남도교육청","latitude":35.34459992,"longitude":129.023799},
{"school_id":"B000013367","school_name":"거제고등학교","school_classification":"고등학교","operational_status":"운영","office_of_edu_code":9010000,"office_of_edu_name":"경상남도교육청","latitude":34.86108759,"longitude":128.6884261},
{"school_id":"B000011913","school_name":"거제공업고등학교","school_classification":"고등학교","operational_status":"운영","office_of_edu_code":9010000,"office_of_edu_name":"경상남도교육청","latitude":34.88210511,"longitude":128.614194},
{"school_id":"B000011393","school_name":"부산산업과학고등학교","school_classification":"고등학교","operational_status":"운영","office_of_edu_code":7150000,"office_of_edu_name":"부산광역시교육청","latitude":35.18926099,"longitude":128.9039687},
{"school_id":"B000011387","school_name":"부일전자디자인고등학교","school_classification":"고등학교","operational_status":"운영","office_of_edu_code":7150000,"office_of_edu_name":"부산광역시교육청","latitude":35.09073609,"longitude":129.0025604},
{"school_id":"B000013541","school_name":"문현고등학교","school_classification":"고등학교","operational_status":"운영","office_of_edu_code":7480000,"office_of_edu_name":"울산광역시교육청","latitude":35.48239565,"longitude":129.4091804},
{"school_id":"B000012182","school_name":"대구동부고등학교","school_classification":"고등학교","operational_status":"운영","office_of_edu_code":7240000,"office_of_edu_name":"대구광역시교육청","latitude":35.87429023,"longitude":128.7190722},
{"school_id":"B000011767","school_name":"밀성제일고등학교","school_classification":"고등학교","operational_status":"운영","office_of_edu_code":9010000,"office_of_edu_name":"경상남도교육청","latitude":35.50218318,"longitude":128.750145},
{"school_id":"B000011813","school_name":"부산국제외국어고등학교","school_classification":"고등학교","operational_status":"운영","office_of_edu_code":7150000,"office_of_edu_name":"부산광역시교육청","latitude":35.16591884,"longitude":129.1443578},
{"school_id":"B000011362","school_name":"부산디지털고등학교","school_classification":"고등학교","operational_status":"운영","office_of_edu_code":7150000,"office_of_edu_name":"부산광역시교육청","latitude":35.10885429,"longitude":129.0324467},
{"school_id":"B000012401","school_name":"무거고등학교","school_classification":"고등학교","operational_status":"운영","office_of_edu_code":7480000,"office_of_edu_name":"울산광역시교육청","latitude":35.53627893,"longitude":129.2507423},
{"school_id":"B000011367","school_name":"부산영상예술고등학교","school_classification":"고등학교","operational_status":"운영","office_of_edu_code":7150000,"office_of_edu_name":"부산광역시교육청","latitude":35.08513613,"longitude":129.0449175},
{"school_id":"B000012405","school_name":"울산제일고등학교","school_classification":"고등학교","operational_status":"운영","office_of_edu_code":7480000,"office_of_edu_name":"울산광역시교육청","latitude":35.54258944,"longitude":129.2681645},
{"school_id":"B000012412","school_name":"남목고등학교","school_classification":"고등학교","operational_status":"운영","office_of_edu_code":7480000,"office_of_edu_name":"울산광역시교육청","latitude":35.53801042,"longitude":129.4187517},
{"school_id":"B000013540","school_name":"성신고등학교","school_classification":"고등학교","operational_status":"운영","office_of_edu_code":7480000,"office_of_edu_name":"울산광역시교육청","latitude":35.56270656,"longitude":129.3278415},
{"school_id":"B000011399","school_name":"대구공업고등학교","school_classification":"고등학교","operational_status":"운영","office_of_edu_code":7240000,"office_of_edu_name":"대구광역시교육청","latitude":35.88321267,"longitude":128.6141702},
{"school_id":"B000012100","school_name":"경남고등학교","school_classification":"고등학교","operational_status":"운영","office_of_edu_code":7150000,"office_of_edu_name":"부산광역시교육청","latitude":35.1201981,"longitude":129.0200404},
{"school_id":"B000012197","school_name":"경상여자고등학교","school_classification":"고등학교","operational_status":"운영","office_of_edu_code":7240000,"office_of_edu_name":"대구광역시교육청","latitude":35.90054196,"longitude":128.5878439},
{"school_id":"B000012120","school_name":"동인고등학교","school_classification":"고등학교","operational_status":"운영","office_of_edu_code":7150000,"office_of_edu_name":"부산광역시교육청","latitude":35.19852193,"longitude":129.0509969},
{"school_id":"B000011718","school_name":"한국생명과학고등학교","school_classification":"고등학교","operational_status":"운영","office_of_edu_code":8750000,"office_of_edu_name":"경상북도교육청","latitude":36.55044902,"longitude":128.6877646},
{"school_id":"B000013202","school_name":"성희여자고등학교","school_classification":"고등학교","operational_status":"운영","office_of_edu_code":8750000,"office_of_edu_name":"경상북도교육청","latitude":36.55153109,"longitude":128.7291442},
{"school_id":"B000013195","school_name":"경일고등학교","school_classification":"고등학교","operational_status":"운영","office_of_edu_code":8750000,"office_of_edu_name":"경상북도교육청","latitude":36.5756984,"longitude":128.7378295},
{"school_id":"B000011848","school_name":"울산예술고등학교","school_classification":"고등학교","operational_status":"운영","office_of_edu_code":7480000,"office_of_edu_name":"울산광역시교육청","latitude":35.4818641,"longitude":129.2162738},
{"school_id":"B000012199","school_name":"대구여자고등학교","school_classification":"고등학교","operational_status":"운영","office_of_edu_code":7240000,"office_of_edu_name":"대구광역시교육청","latitude":35.8565094,"longitude":128.629864},
{"school_id":"B000011808","school_name":"부산해사고등학교","school_classification":"고등학교","operational_status":"운영","office_of_edu_code":7150000,"office_of_edu_name":"부산광역시교육청","latitude":35.0741905,"longitude":129.0770175},
{"school_id":"B000012097","school_name":"혜광고등학교","school_classification":"고등학교","operational_status":"운영","office_of_edu_code":7150000,"office_of_edu_name":"부산광역시교육청","latitude":35.10879982,"longitude":129.0246054},
{"school_id":"B000011764","school_name":"김해생명과학고등학교","school_classification":"고등학교","operational_status":"운영","office_of_edu_code":9010000,"office_of_edu_name":"경상남도교육청","latitude":35.23723898,"longitude":128.8552702},
{"school_id":"B000012210","school_name":"대곡고등학교","school_classification":"고등학교","operational_status":"운영","office_of_edu_code":7240000,"office_of_edu_name":"대구광역시교육청","latitude":35.80323736,"longitude":128.536857},
{"school_id":"B000012106","school_name":"광명고등학교","school_classification":"고등학교","operational_status":"운영","office_of_edu_code":7150000,"office_of_edu_name":"부산광역시교육청","latitude":35.08366549,"longitude":129.0646045},
{"school_id":"B000023177","school_name":"구산고등학교","school_classification":"고등학교","operational_status":"운영","office_of_edu_code":9010000,"office_of_edu_name":"경상남도교육청","latitude":35.25044359,"longitude":128.8756694},
{"school_id":"B000013266","school_name":"이서고등학교","school_classification":"고등학교","operational_status":"운영","office_of_edu_code":8750000,"office_of_edu_name":"경상북도교육청","latitude":35.66249467,"longitude":128.6684614},
{"school_id":"B000013196","school_name":"경안고등학교","school_classification":"고등학교","operational_status":"운영","office_of_edu_code":8750000,"office_of_edu_name":"경상북도교육청","latitude":36.5685045,"longitude":128.7204749},
{"school_id":"B000011763","school_name":"김해건설공업고등학교","school_classification":"고등학교","operational_status":"운영","office_of_edu_code":9010000,"office_of_edu_name":"경상남도교육청","latitude":35.23954528,"longitude":128.8759904},
{"school_id":"B000013199","school_name":"성창여자고등학교","school_classification":"고등학교","operational_status":"운영","office_of_edu_code":8750000,"office_of_edu_name":"경상북도교육청","latitude":36.5787438,"longitude":128.7126189},
{"school_id":"B000012183","school_name":"경덕여자고등학교","school_classification":"고등학교","operational_status":"운영","office_of_edu_code":7240000,"office_of_edu_name":"대구광역시교육청","latitude":35.86357119,"longitude":128.5489381},
{"school_id":"B000012123","school_name":"사직여자고등학교","school_classification":"고등학교","operational_status":"운영","office_of_edu_code":7150000,"office_of_edu_name":"부산광역시교육청","latitude":35.1968431,"longitude":129.0514472},
{"school_id":"B000012187","school_name":"함지고등학교","school_classification":"고등학교","operational_status":"운영","office_of_edu_code":7240000,"office_of_edu_name":"대구광역시교육청","latitude":35.92786841,"longitude":128.5605125},
{"school_id":"B000012217","school_name":"경원고등학교","school_classification":"고등학교","operational_status":"운영","office_of_edu_code":7240000,"office_of_edu_name":"대구광역시교육청","latitude":35.86547932,"longitude":128.525679},
{"school_id":"B000012141","school_name":"센텀고등학교","school_classification":"고등학교","operational_status":"운영","office_of_edu_code":7150000,"office_of_edu_name":"부산광역시교육청","latitude":35.17710343,"longitude":129.1269806},
{"school_id":"B000013295","school_name":"합포고등학교","school_classification":"고등학교","operational_status":"운영","office_of_edu_code":9010000,"office_of_edu_name":"경상남도교육청","latitude":35.20941219,"longitude":128.5643386},
{"school_id":"B000013333","school_name":"진주외국어고등학교","school_classification":"고등학교","operational_status":"운영","office_of_edu_code":9010000,"office_of_edu_name":"경상남도교육청","latitude":35.16965618,"longitude":128.281668},
{"school_id":"B000013509","school_name":"대구서부고등학교","school_classification":"고등학교","operational_status":"운영","office_of_edu_code":7240000,"office_of_edu_name":"대구광역시교육청","latitude":35.87365309,"longitude":128.5602007},
{"school_id":"B000013194","school_name":"안동여자고등학교","school_classification":"고등학교","operational_status":"운영","office_of_edu_code":8750000,"office_of_edu_name":"경상북도교육청","latitude":36.57303974,"longitude":128.7256251},
{"school_id":"B000011404","school_name":"대구서부공업고등학교","school_classification":"고등학교","operational_status":"운영","office_of_edu_code":7240000,"office_of_edu_name":"대구광역시교육청","latitude":35.85749282,"longitude":128.5482964},
{"school_id":"B000012189","school_name":"매천고등학교","school_classification":"고등학교","operational_status":"운영","office_of_edu_code":7240000,"office_of_edu_name":"대구광역시교육청","latitude":35.91159433,"longitude":128.5472371},
{"school_id":"B000013513","school_name":"구암고등학교","school_classification":"고등학교","operational_status":"운영","office_of_edu_code":7240000,"office_of_edu_name":"대구광역시교육청","latitude":35.92623822,"longitude":128.553221},
{"school_id":"B000011397","school_name":"서부산공업고등학교","school_classification":"고등학교","operational_status":"운영","office_of_edu_code":7150000,"office_of_edu_name":"부산광역시교육청","latitude":35.17327691,"longitude":128.9933191},
{"school_id":"B000012216","school_name":"영남고등학교","school_classification":"고등학교","operational_status":"운영","office_of_edu_code":7240000,"office_of_edu_name":"대구광역시교육청","latitude":35.82076999,"longitude":128.5363043},
{"school_id":"B000012179","school_name":"청구고등학교","school_classification":"고등학교","operational_status":"운영","office_of_edu_code":7240000,"office_of_edu_name":"대구광역시교육청","latitude":35.86865525,"longitude":128.6205716},
{"school_id":"B000013265","school_name":"금천고등학교","school_classification":"고등학교","operational_status":"운영","office_of_edu_code":8750000,"office_of_edu_name":"경상북도교육청","latitude":35.68807595,"longitude":128.8947261},
{"school_id":"B000011732","school_name":"경북조리과학고등학교","school_classification":"고등학교","operational_status":"운영","office_of_edu_code":8750000,"office_of_edu_name":"경상북도교육청","latitude":36.73901645,"longitude":128.1145085},
{"school_id":"B000012099","school_name":"남성여자고등학교","school_classification":"고등학교","operational_status":"운영","office_of_edu_code":7150000,"office_of_edu_name":"부산광역시교육청","latitude":35.10571479,"longitude":129.0344121},
{"school_id":"B000012159","school_name":"브니엘고등학교","school_classification":"고등학교","operational_status":"운영","office_of_edu_code":7150000,"office_of_edu_name":"부산광역시교육청","latitude":35.25485306,"longitude":129.1039264},
{"school_id":"B000013389","school_name":"남지고등학교","school_classification":"고등학교","operational_status":"운영","office_of_edu_code":9010000,"office_of_edu_name":"경상남도교육청","latitude":35.38646985,"longitude":128.472249},
{"school_id":"B000012108","school_name":"양정고등학교","school_classification":"고등학교","operational_status":"운영","office_of_edu_code":7150000,"office_of_edu_name":"부산광역시교육청","latitude":35.16990941,"longitude":129.0750869},
{"school_id":"B000013203","school_name":"풍산고등학교","school_classification":"고등학교","operational_status":"운영","office_of_edu_code":8750000,"office_of_edu_name":"경상북도교육청","latitude":36.58414665,"longitude":128.5665358},
{"school_id":"B000012168","school_name":"부산남일고등학교","school_classification":"고등학교","operational_status":"운영","office_of_edu_code":7150000,"office_of_edu_name":"부산광역시교육청","latitude":35.17856564,"longitude":129.1011712},
{"school_id":"B000013517","school_name":"상인고등학교","school_classification":"고등학교","operational_status":"운영","office_of_edu_code":7240000,"office_of_edu_name":"대구광역시교육청","latitude":35.81045198,"longitude":128.5512978},
{"school_id":"B000013288","school_name":"마산여자고등학교","school_classification":"고등학교","operational_status":"운영","office_of_edu_code":9010000,"office_of_edu_name":"경상남도교육청","latitude":35.19593834,"longitude":128.5614097},
{"school_id":"B000013292","school_name":"진해여자고등학교","school_classification":"고등학교","operational_status":"운영","office_of_edu_code":9010000,"office_of_edu_name":"경상남도교육청","latitude":35.1563023,"longitude":128.6575727},
{"school_id":"B000012218","school_name":"송현여자고등학교","school_classification":"고등학교","operational_status":"운영","office_of_edu_code":7240000,"office_of_edu_name":"대구광역시교육청","latitude":35.83112106,"longitude":128.5462157},
{"school_id":"B000013171","school_name":"세명고등학교","school_classification":"고등학교","operational_status":"운영","office_of_edu_code":8750000,"office_of_edu_name":"경상북도교육청","latitude":36.01659564,"longitude":129.3495112},
{"school_id":"B000012222","school_name":"다사고등학교","school_classification":"고등학교","operational_status":"운영","office_of_edu_code":7240000,"office_of_edu_name":"대구광역시교육청","latitude":35.86110567,"longitude":128.4627608},
{"school_id":"B000012226","school_name":"달서고등학교","school_classification":"고등학교","operational_status":"운영","office_of_edu_code":7240000,"office_of_edu_name":"대구광역시교육청","latitude":35.8861993,"longitude":128.4214028},
{"school_id":"B000011812","school_name":"부산기계공업고등학교","school_classification":"고등학교","operational_status":"운영","office_of_edu_code":7150000,"office_of_edu_name":"부산광역시교육청","latitude":35.16184146,"longitude":129.1528983},
{"school_id":"B000012404","school_name":"울산강남고등학교","school_classification":"고등학교","operational_status":"운영","office_of_edu_code":7480000,"office_of_edu_name":"울산광역시교육청","latitude":35.54699809,"longitude":129.3187347},
{"school_id":"B000012408","school_name":"우신고등학교","school_classification":"고등학교","operational_status":"운영","office_of_edu_code":7480000,"office_of_edu_name":"울산광역시교육청","latitude":35.53825621,"longitude":129.2499623},
{"school_id":"B000012191","school_name":"성광고등학교","school_classification":"고등학교","operational_status":"운영","office_of_edu_code":7240000,"office_of_edu_name":"대구광역시교육청","latitude":35.9075717,"longitude":128.6242288},
{"school_id":"B000012207","school_name":"덕원고등학교","school_classification":"고등학교","operational_status":"운영","office_of_edu_code":7240000,"office_of_edu_name":"대구광역시교육청","latitude":35.82572222,"longitude":128.705953},
{"school_id":"B000013245","school_name":"영남삼육고등학교","school_classification":"고등학교","operational_status":"운영","office_of_edu_code":8750000,"office_of_edu_name":"경상북도교육청","latitude":35.78747508,"longitude":128.8286797},
{"school_id":"B000011406","school_name":"경북여자상업고등학교","school_classification":"고등학교","operational_status":"운영","office_of_edu_code":7240000,"office_of_edu_name":"대구광역시교육청","latitude":35.85494162,"longitude":128.5887495},
{"school_id":"B000012214","school_name":"성서고등학교","school_classification":"고등학교","operational_status":"운영","office_of_edu_code":7240000,"office_of_edu_name":"대구광역시교육청","latitude":35.8598709,"longitude":128.516192},
{"school_id":"B000012196","school_name":"경명여자고등학교","school_classification":"고등학교","operational_status":"운영","office_of_edu_code":7240000,"office_of_edu_name":"대구광역시교육청","latitude":35.88072706,"longitude":128.5984327},
{"school_id":"B000011780","school_name":"함양제일고등학교","school_classification":"고등학교","operational_status":"운영","office_of_edu_code":9010000,"office_of_edu_name":"경상남도교육청","latitude":35.52525216,"longitude":127.7323767},
{"school_id":"B000012203","school_name":"능인고등학교","school_classification":"고등학교","operational_status":"운영","office_of_edu_code":7240000,"office_of_edu_name":"대구광역시교육청","latitude":35.83210847,"longitude":128.632558},
{"school_id":"B000013177","school_name":"경북간호고등학교","school_classification":"고등학교","operational_status":"운영","office_of_edu_code":8750000,"office_of_edu_name":"경상북도교육청","latitude":36.16391663,"longitude":129.0932289},
{"school_id":"B000011398","school_name":"경북공업고등학교","school_classification":"고등학교","operational_status":"운영","office_of_edu_code":7240000,"office_of_edu_name":"대구광역시교육청","latitude":35.85851368,"longitude":128.5835008},
{"school_id":"B000012394","school_name":"다운고등학교","school_classification":"고등학교","operational_status":"운영","office_of_edu_code":7480000,"office_of_edu_name":"울산광역시교육청","latitude":35.56648882,"longitude":129.2706096},
{"school_id":"B000012128","school_name":"배정고등학교","school_classification":"고등학교","operational_status":"운영","office_of_edu_code":7150000,"office_of_edu_name":"부산광역시교육청","latitude":35.13215205,"longitude":129.0674134},
{"school_id":"B000027278","school_name":"대중금속공업고등학교","school_classification":"고등학교","operational_status":"운영","office_of_edu_code":7240000,"office_of_edu_name":"대구광역시교육청","latitude":35.9556322,"longitude":128.5529842},
{"school_id":"B000012416","school_name":"달천고등학교","school_classification":"고등학교","operational_status":"운영","office_of_edu_code":7480000,"office_of_edu_name":"울산광역시교육청","latitude":35.63192969,"longitude":129.3288462},
{"school_id":"B000012391","school_name":"학성여자고등학교","school_classification":"고등학교","operational_status":"운영","office_of_edu_code":7480000,"office_of_edu_name":"울산광역시교육청","latitude":35.56663235,"longitude":129.3349493},
{"school_id":"B000013294","school_name":"마산가포고등학교","school_classification":"고등학교","operational_status":"운영","office_of_edu_code":9010000,"office_of_edu_name":"경상남도교육청","latitude":35.16749022,"longitude":128.5711686},
{"school_id":"B000012423","school_name":"울산경의고등학교","school_classification":"고등학교","operational_status":"운영","office_of_edu_code":7480000,"office_of_edu_name":"울산광역시교육청","latitude":35.58852032,"longitude":129.0932748},
{"school_id":"B000011742","school_name":"경북드론고등학교","school_classification":"고등학교","operational_status":"운영","office_of_edu_code":8750000,"office_of_edu_name":"경상북도교육청","latitude":35.64122493,"longitude":128.6207782},
{"school_id":"B000012406","school_name":"삼일여자고등학교","school_classification":"고등학교","operational_status":"운영","office_of_edu_code":7480000,"office_of_edu_name":"울산광역시교육청","latitude":35.51593104,"longitude":129.316772},
{"school_id":"B000023226","school_name":"석적고등학교","school_classification":"고등학교","operational_status":"운영","office_of_edu_code":8750000,"office_of_edu_name":"경상북도교육청","latitude":36.0816596,"longitude":128.4184575},
{"school_id":"B000011823","school_name":"대구체육고등학교","school_classification":"고등학교","operational_status":"운영","office_of_edu_code":7240000,"office_of_edu_name":"대구광역시교육청","latitude":35.95879744,"longitude":128.5577173},
{"school_id":"B000011746","school_name":"한국산림과학고등학교","school_classification":"고등학교","operational_status":"운영","office_of_edu_code":8750000,"office_of_edu_name":"경상북도교육청","latitude":36.94786297,"longitude":128.914111},
{"school_id":"B000011748","school_name":"평해정보고등학교","school_classification":"고등학교","operational_status":"운영","office_of_edu_code":8750000,"office_of_edu_name":"경상북도교육청","latitude":36.72891434,"longitude":129.4429677},
{"school_id":"B000013336","school_name":"충무고등학교","school_classification":"고등학교","operational_status":"운영","office_of_edu_code":9010000,"office_of_edu_name":"경상남도교육청","latitude":34.8537248,"longitude":128.4242294},
{"school_id":"B000011750","school_name":"창원기계공업고등학교","school_classification":"고등학교","operational_status":"운영","office_of_edu_code":9010000,"office_of_edu_name":"경상남도교육청","latitude":35.22630036,"longitude":128.6654086},
{"school_id":"B000013583","school_name":"울진고등학교","school_classification":"고등학교","operational_status":"운영","office_of_edu_code":8750000,"office_of_edu_name":"경상북도교육청","latitude":36.99735629,"longitude":129.4058736},
{"school_id":"B000011409","school_name":"영남공업고등학교","school_classification":"고등학교","operational_status":"운영","office_of_edu_code":7240000,"office_of_edu_name":"대구광역시교육청","latitude":35.84842817,"longitude":128.6469293},
{"school_id":"B000013284","school_name":"후포고등학교","school_classification":"고등학교","operational_status":"운영","office_of_edu_code":8750000,"office_of_edu_name":"경상북도교육청","latitude":36.68031187,"longitude":129.4459375},
{"school_id":"B000013272","school_name":"순심여자고등학교","school_classification":"고등학교","operational_status":"운영","office_of_edu_code":8750000,"office_of_edu_name":"경상북도교육청","latitude":35.98647718,"longitude":128.3958253},
{"school_id":"B000013281","school_name":"봉화고등학교","school_classification":"고등학교","operational_status":"운영","office_of_edu_code":8750000,"office_of_edu_name":"경상북도교육청","latitude":36.89603742,"longitude":128.7399693},
{"school_id":"B000013290","school_name":"창원중앙여자고등학교","school_classification":"고등학교","operational_status":"운영","office_of_edu_code":9010000,"office_of_edu_name":"경상남도교육청","latitude":35.2142987,"longitude":128.6924259},
{"school_id":"B000013186","school_name":"안강여자고등학교","school_classification":"고등학교","operational_status":"운영","office_of_edu_code":8750000,"office_of_edu_name":"경상북도교육청","latitude":35.9933896,"longitude":129.2108268},
{"school_id":"B000013185","school_name":"한국국제통상마이스터고등학교","school_classification":"고등학교","operational_status":"운영","office_of_edu_code":8750000,"office_of_edu_name":"경상북도교육청","latitude":35.81078851,"longitude":129.5061535},
{"school_id":"B000013170","school_name":"포항중앙여자고등학교","school_classification":"고등학교","operational_status":"운영","office_of_edu_code":8750000,"office_of_edu_name":"경상북도교육청","latitude":36.06373375,"longitude":129.3486118},
{"school_id":"B000013166","school_name":"포항중앙고등학교","school_classification":"고등학교","operational_status":"운영","office_of_edu_code":8750000,"office_of_edu_name":"경상북도교육청","latitude":36.06507791,"longitude":129.3496382},
{"school_id":"B000013223","school_name":"선영여자고등학교","school_classification":"고등학교","operational_status":"운영","office_of_edu_code":8750000,"office_of_edu_name":"경상북도교육청","latitude":36.81660939,"longitude":128.6422124},
{"school_id":"B000013283","school_name":"죽변고등학교","school_classification":"고등학교","operational_status":"운영","office_of_edu_code":8750000,"office_of_edu_name":"경상북도교육청","latitude":37.0652152,"longitude":129.4213289},
{"school_id":"B000011899","school_name":"경북과학고등학교","school_classification":"고등학교","operational_status":"운영","office_of_edu_code":8750000,"office_of_edu_name":"경상북도교육청","latitude":36.04683033,"longitude":129.3515854},
{"school_id":"B000013273","school_name":"약목고등학교","school_classification":"고등학교","operational_status":"운영","office_of_edu_code":8750000,"office_of_edu_name":"경상북도교육청","latitude":36.02715811,"longitude":128.3720695},
{"school_id":"B000013319","school_name":"마산제일고등학교","school_classification":"고등학교","operational_status":"운영","office_of_edu_code":9010000,"office_of_edu_name":"경상남도교육청","latitude":35.26178427,"longitude":128.5054568},
{"school_id":"B000013425","school_name":"삼가고등학교","school_classification":"고등학교","operational_status":"운영","office_of_edu_code":9010000,"office_of_edu_name":"경상남도교육청","latitude":35.41313677,"longitude":128.1313774},
{"school_id":"B000013162","school_name":"두호고등학교","school_classification":"고등학교","operational_status":"운영","office_of_edu_code":8750000,"office_of_edu_name":"경상북도교육청","latitude":36.06278961,"longitude":129.3732049},
{"school_id":"B000011745","school_name":"한국펫고등학교","school_classification":"고등학교","operational_status":"운영","office_of_edu_code":8750000,"office_of_edu_name":"경상북도교육청","latitude":36.88687651,"longitude":128.734622},
{"school_id":"B000013582","school_name":"북삼고등학교","school_classification":"고등학교","operational_status":"운영","office_of_edu_code":8750000,"office_of_edu_name":"경상북도교육청","latitude":36.07169715,"longitude":128.3347281},
{"school_id":"B000013182","school_name":"문화고등학교","school_classification":"고등학교","operational_status":"운영","office_of_edu_code":8750000,"office_of_edu_name":"경상북도교육청","latitude":35.85337311,"longitude":129.1690639},
{"school_id":"B000011715","school_name":"김천생명과학고등학교","school_classification":"고등학교","operational_status":"운영","office_of_edu_code":8750000,"office_of_edu_name":"경상북도교육청","latitude":36.13632669,"longitude":128.102178},
{"school_id":"B000013219","school_name":"영광고등학교","school_classification":"고등학교","operational_status":"운영","office_of_edu_code":8750000,"office_of_edu_name":"경상북도교육청","latitude":36.84190407,"longitude":128.6432161},
{"school_id":"B000011731","school_name":"문경공업고등학교","school_classification":"고등학교","operational_status":"운영","office_of_edu_code":8750000,"office_of_edu_name":"경상북도교육청","latitude":36.59534446,"longitude":128.2073917},
{"school_id":"B000013188","school_name":"무산고등학교","school_classification":"고등학교","operational_status":"운영","office_of_edu_code":8750000,"office_of_edu_name":"경상북도교육청","latitude":35.84478145,"longitude":129.0961167},
{"school_id":"B000025145","school_name":"매곡고등학교","school_classification":"고등학교","operational_status":"운영","office_of_edu_code":7480000,"office_of_edu_name":"울산광역시교육청","latitude":35.64481395,"longitude":129.3595287},
{"school_id":"B000013368","school_name":"해성고등학교","school_classification":"고등학교","operational_status":"운영","office_of_edu_code":9010000,"office_of_edu_name":"경상남도교육청","latitude":34.87068087,"longitude":128.7236928},
{"school_id":"B000011738","school_name":"봉양정보고등학교","school_classification":"고등학교","operational_status":"운영","office_of_edu_code":8750000,"office_of_edu_name":"경상북도교육청","latitude":36.3031493,"longitude":128.5849448},
{"school_id":"B000013236","school_name":"점촌고등학교","school_classification":"고등학교","operational_status":"운영","office_of_edu_code":8750000,"office_of_edu_name":"경상북도교육청","latitude":36.59628448,"longitude":128.1820532},
{"school_id":"B000011900","school_name":"포항예술고등학교","school_classification":"고등학교","operational_status":"운영","office_of_edu_code":8750000,"office_of_edu_name":"경상북도교육청","latitude":36.05181115,"longitude":129.3148061},
{"school_id":"B000011468","school_name":"울산공업고등학교","school_classification":"고등학교","operational_status":"운영","office_of_edu_code":7480000,"office_of_edu_name":"울산광역시교육청","latitude":35.54182925,"longitude":129.3159739},
{"school_id":"B000012124","school_name":"학산여자고등학교","school_classification":"고등학교","operational_status":"운영","office_of_edu_code":7150000,"office_of_edu_name":"부산광역시교육청","latitude":35.20644229,"longitude":129.0965495},
{"school_id":"B000013220","school_name":"영주고등학교","school_classification":"고등학교","operational_status":"운영","office_of_edu_code":8750000,"office_of_edu_name":"경상북도교육청","latitude":36.82270182,"longitude":128.6412982},
{"school_id":"B000013257","school_name":"영양고등학교","school_classification":"고등학교","operational_status":"운영","office_of_edu_code":8750000,"office_of_edu_name":"경상북도교육청","latitude":36.66077434,"longitude":129.1108216},
{"school_id":"B000011903","school_name":"금오공업고등학교","school_classification":"고등학교","operational_status":"운영","office_of_edu_code":8750000,"office_of_edu_name":"경상북도교육청","latitude":36.11808678,"longitude":128.3697454},
{"school_id":"B000013580","school_name":"상주여자고등학교","school_classification":"고등학교","operational_status":"운영","office_of_edu_code":8750000,"office_of_edu_name":"경상북도교육청","latitude":36.42050629,"longitude":128.1787791},
{"school_id":"B000013246","school_name":"군위고등학교","school_classification":"고등학교","operational_status":"운영","office_of_edu_code":8750000,"office_of_edu_name":"경상북도교육청","latitude":36.24547463,"longitude":128.5697899},
{"school_id":"B000013285","school_name":"마산용마고등학교","school_classification":"고등학교","operational_status":"운영","office_of_edu_code":9010000,"office_of_edu_name":"경상남도교육청","latitude":35.21228385,"longitude":128.5821184},
{"school_id":"B000013249","school_name":"의성고등학교","school_classification":"고등학교","operational_status":"운영","office_of_edu_code":8750000,"office_of_edu_name":"경상북도교육청","latitude":36.35335896,"longitude":128.7002102},
{"school_id":"B000011700","school_name":"포항여자전자고등학교","school_classification":"고등학교","operational_status":"운영","office_of_edu_code":8750000,"office_of_edu_name":"경상북도교육청","latitude":36.05062684,"longitude":129.3477758},
{"school_id":"B000012419","school_name":"호계고등학교","school_classification":"고등학교","operational_status":"운영","office_of_edu_code":7480000,"office_of_edu_name":"울산광역시교육청","latitude":35.63056594,"longitude":129.3550384},
{"school_id":"B000013305","school_name":"창신고등학교","school_classification":"고등학교","operational_status":"운영","office_of_edu_code":9010000,"office_of_edu_name":"경상남도교육청","latitude":35.2259412,"longitude":128.5975545},
{"school_id":"B000013183","school_name":"근화여자고등학교","school_classification":"고등학교","operational_status":"운영","office_of_edu_code":8750000,"office_of_edu_name":"경상북도교육청","latitude":35.87058466,"longitude":129.2273172},
{"school_id":"B000013232","school_name":"함창고등학교","school_classification":"고등학교","operational_status":"운영","office_of_edu_code":8750000,"office_of_edu_name":"경상북도교육청","latitude":36.5678415,"longitude":128.1739661},
{"school_id":"B000013159","school_name":"포항고등학교","school_classification":"고등학교","operational_status":"운영","office_of_edu_code":8750000,"office_of_edu_name":"경상북도교육청","latitude":36.05737395,"longitude":129.3705251},
{"school_id":"B000013405","school_name":"산청고등학교","school_classification":"고등학교","operational_status":"운영","office_of_edu_code":9010000,"office_of_edu_name":"경상남도교육청","latitude":35.40996061,"longitude":127.8713538},
{"school_id":"B000013235","school_name":"중모고등학교","school_classification":"고등학교","operational_status":"운영","office_of_edu_code":8750000,"office_of_edu_name":"경상북도교육청","latitude":36.3254066,"longitude":127.9608589},
{"school_id":"B000011704","school_name":"포항흥해공업고등학교","school_classification":"고등학교","operational_status":"운영","office_of_edu_code":8750000,"office_of_edu_name":"경상북도교육청","latitude":36.1071263,"longitude":129.3385381},
{"school_id":"B000013178","school_name":"계림고등학교","school_classification":"고등학교","operational_status":"운영","office_of_edu_code":8750000,"office_of_edu_name":"경상북도교육청","latitude":35.8663446,"longitude":129.2087245},
{"school_id":"B000012167","school_name":"이사벨고등학교","school_classification":"고등학교","operational_status":"운영","office_of_edu_code":7150000,"office_of_edu_name":"부산광역시교육청","latitude":35.19353414,"longitude":129.077938},
{"school_id":"B000013181","school_name":"경주고등학교","school_classification":"고등학교","operational_status":"운영","office_of_edu_code":8750000,"office_of_edu_name":"경상북도교육청","latitude":35.84315899,"longitude":129.2266104},
{"school_id":"B000013251","school_name":"안계고등학교","school_classification":"고등학교","operational_status":"운영","office_of_edu_code":8750000,"office_of_edu_name":"경상북도교육청","latitude":36.3833934,"longitude":128.4339089},
{"school_id":"B000013209","school_name":"선주고등학교","school_classification":"고등학교","operational_status":"운영","office_of_edu_code":8750000,"office_of_edu_name":"경상북도교육청","latitude":36.14176382,"longitude":128.3122513},
{"school_id":"B000013215","school_name":"현일고등학교","school_classification":"고등학교","operational_status":"운영","office_of_edu_code":8750000,"office_of_edu_name":"경상북도교육청","latitude":36.18720149,"longitude":128.349288},
{"school_id":"B000011725","school_name":"금호공업고등학교","school_classification":"고등학교","operational_status":"운영","office_of_edu_code":8750000,"office_of_edu_name":"경상북도교육청","latitude":35.9323949,"longitude":128.8736677},
{"school_id":"B000011708","school_name":"경주여자정보고등학교","school_classification":"고등학교","operational_status":"운영","office_of_edu_code":8750000,"office_of_edu_name":"경상북도교육청","latitude":35.77338342,"longitude":129.2898895},
{"school_id":"B000013388","school_name":"창녕여자고등학교","school_classification":"고등학교","operational_status":"운영","office_of_edu_code":9010000,"office_of_edu_name":"경상남도교육청","latitude":35.5403046,"longitude":128.5053412},
{"school_id":"B000012148","school_name":"다대고등학교","school_classification":"고등학교","operational_status":"운영","office_of_edu_code":7150000,"office_of_edu_name":"부산광역시교육청","latitude":35.05313679,"longitude":128.9698499},
{"school_id":"B000011911","school_name":"삼천포공업고등학교","school_classification":"고등학교","operational_status":"운영","office_of_edu_code":9010000,"office_of_edu_name":"경상남도교육청","latitude":34.93428197,"longitude":128.0839734},
{"school_id":"B000011756","school_name":"태봉고등학교","school_classification":"고등학교","operational_status":"운영","office_of_edu_code":9010000,"office_of_edu_name":"경상남도교육청","latitude":35.147794,"longitude":128.5098136},
{"school_id":"B000013269","school_name":"성주여자고등학교","school_classification":"고등학교","operational_status":"운영","office_of_edu_code":8750000,"office_of_edu_name":"경상북도교육청","latitude":35.91621487,"longitude":128.2820744},
{"school_id":"B000011822","school_name":"경북예술고등학교","school_classification":"고등학교","operational_status":"운영","office_of_edu_code":7240000,"office_of_edu_name":"대구광역시교육청","latitude":35.8545867,"longitude":128.5885265},
{"school_id":"B000013189","school_name":"김천중앙고등학교","school_classification":"고등학교","operational_status":"운영","office_of_edu_code":8750000,"office_of_edu_name":"경상북도교육청","latitude":36.08778707,"longitude":128.1055095},
{"school_id":"B000013315","school_name":"창원성민여자고등학교","school_classification":"고등학교","operational_status":"운영","office_of_edu_code":9010000,"office_of_edu_name":"경상남도교육청","latitude":35.2588443,"longitude":128.6151137},
{"school_id":"B000013250","school_name":"금성고등학교","school_classification":"고등학교","operational_status":"운영","office_of_edu_code":8750000,"office_of_edu_name":"경상북도교육청","latitude":36.25441645,"longitude":128.690147},
{"school_id":"B000011724","school_name":"경북항공고등학교","school_classification":"고등학교","operational_status":"운영","office_of_edu_code":8750000,"office_of_edu_name":"경상북도교육청","latitude":36.88033832,"longitude":128.5266682},
{"school_id":"B000013585","school_name":"웅천고등학교","school_classification":"고등학교","operational_status":"운영","office_of_edu_code":9010000,"office_of_edu_name":"경상남도교육청","latitude":35.1124855,"longitude":128.7497026},
{"school_id":"B000013175","school_name":"경북세무고등학교","school_classification":"고등학교","operational_status":"운영","office_of_edu_code":8750000,"office_of_edu_name":"경상북도교육청","latitude":36.0773333,"longitude":129.1960916},
{"school_id":"B000013312","school_name":"마산무학여자고등학교","school_classification":"고등학교","operational_status":"운영","office_of_edu_code":9010000,"office_of_edu_name":"경상남도교육청","latitude":35.2230259,"longitude":128.5748764},
{"school_id":"B000013579","school_name":"영주제일고등학교","school_classification":"고등학교","operational_status":"운영","office_of_edu_code":8750000,"office_of_edu_name":"경상북도교육청","latitude":36.83292511,"longitude":128.6091427},
{"school_id":"B000013164","school_name":"동지고등학교","school_classification":"고등학교","operational_status":"운영","office_of_edu_code":8750000,"office_of_edu_name":"경상북도교육청","latitude":36.03860468,"longitude":129.3467246},
{"school_id":"B000011720","school_name":"구미여자상업고등학교","school_classification":"고등학교","operational_status":"운영","office_of_edu_code":8750000,"office_of_edu_name":"경상북도교육청","latitude":36.10756924,"longitude":128.3421444},
{"school_id":"B000013237","school_name":"문창고등학교","school_classification":"고등학교","operational_status":"운영","office_of_edu_code":8750000,"office_of_edu_name":"경상북도교육청","latitude":36.60352544,"longitude":128.2003063},
{"school_id":"B000013260","school_name":"영덕고등학교","school_classification":"고등학교","operational_status":"운영","office_of_edu_code":8750000,"office_of_edu_name":"경상북도교육청","latitude":36.41488843,"longitude":129.3679427},
{"school_id":"B000013211","school_name":"경구고등학교","school_classification":"고등학교","operational_status":"운영","office_of_edu_code":8750000,"office_of_edu_name":"경상북도교육청","latitude":36.14854107,"longitude":128.307609},
{"school_id":"B000012176","school_name":"장안제일고등학교","school_classification":"고등학교","operational_status":"운영","office_of_edu_code":7150000,"office_of_edu_name":"부산광역시교육청","latitude":35.31450466,"longitude":129.2407786},
{"school_id":"B000011741","school_name":"강구정보고등학교","school_classification":"고등학교","operational_status":"운영","office_of_edu_code":8750000,"office_of_edu_name":"경상북도교육청","latitude":36.35361053,"longitude":129.3803591},
{"school_id":"B000013358","school_name":"장유고등학교","school_classification":"고등학교","operational_status":"운영","office_of_edu_code":9010000,"office_of_edu_name":"경상남도교육청","latitude":35.2020874,"longitude":128.8039204},
{"school_id":"B000011702","school_name":"포항제철공업고등학교","school_classification":"고등학교","operational_status":"운영","office_of_edu_code":8750000,"office_of_edu_name":"경상북도교육청","latitude":36.02230834,"longitude":129.3270264},
{"school_id":"B000011714","school_name":"경주화랑고등학교","school_classification":"고등학교","operational_status":"운영","office_of_edu_code":8750000,"office_of_edu_name":"경상북도교육청","latitude":35.7943324,"longitude":129.3876997},
{"school_id":"B000023232","school_name":"울산스포츠과학고등학교","school_classification":"고등학교","operational_status":"운영","office_of_edu_code":7480000,"office_of_edu_name":"울산광역시교육청","latitude":35.62375059,"longitude":129.4313014},
{"school_id":"B000013163","school_name":"포항장성고등학교","school_classification":"고등학교","operational_status":"운영","office_of_edu_code":8750000,"office_of_edu_name":"경상북도교육청","latitude":36.0858321,"longitude":129.384586},
{"school_id":"B000012223","school_name":"화원고등학교","school_classification":"고등학교","operational_status":"운영","office_of_edu_code":7240000,"office_of_edu_name":"대구광역시교육청","latitude":35.79720117,"longitude":128.4892713},
{"school_id":"B000013160","school_name":"포항여자고등학교","school_classification":"고등학교","operational_status":"운영","office_of_edu_code":8750000,"office_of_edu_name":"경상북도교육청","latitude":36.05064084,"longitude":129.3643118},
{"school_id":"B000013276","school_name":"예천여자고등학교","school_classification":"고등학교","operational_status":"운영","office_of_edu_code":8750000,"office_of_edu_name":"경상북도교육청","latitude":36.66512706,"longitude":128.4604323},
{"school_id":"B000013207","school_name":"사곡고등학교","school_classification":"고등학교","operational_status":"운영","office_of_edu_code":8750000,"office_of_edu_name":"경상북도교육청","latitude":36.09685605,"longitude":128.352797},
{"school_id":"B000013239","school_name":"가은고등학교","school_classification":"고등학교","operational_status":"운영","office_of_edu_code":8750000,"office_of_edu_name":"경상북도교육청","latitude":36.64547535,"longitude":128.0711654},
{"school_id":"B000013238","school_name":"문경여자고등학교","school_classification":"고등학교","operational_status":"운영","office_of_edu_code":8750000,"office_of_edu_name":"경상북도교육청","latitude":36.59406498,"longitude":128.1944829},
{"school_id":"B000012411","school_name":"화암고등학교","school_classification":"고등학교","operational_status":"운영","office_of_edu_code":7480000,"office_of_edu_name":"울산광역시교육청","latitude":35.476981,"longitude":129.409585},
{"school_id":"B000013191","school_name":"성의고등학교","school_classification":"고등학교","operational_status":"운영","office_of_edu_code":8750000,"office_of_edu_name":"경상북도교육청","latitude":36.11395555,"longitude":128.1389811},
{"school_id":"B000013169","school_name":"유성여자고등학교","school_classification":"고등학교","operational_status":"운영","office_of_edu_code":8750000,"office_of_edu_name":"경상북도교육청","latitude":36.05777105,"longitude":129.3610143},
{"school_id":"B000012161","school_name":"브니엘여자고등학교","school_classification":"고등학교","operational_status":"운영","office_of_edu_code":7150000,"office_of_edu_name":"부산광역시교육청","latitude":35.25485306,"longitude":129.1039264},
{"school_id":"B000013218","school_name":"영주여자고등학교","school_classification":"고등학교","operational_status":"운영","office_of_edu_code":8750000,"office_of_edu_name":"경상북도교육청","latitude":36.8302987,"longitude":128.6287893},
{"school_id":"B000011721","school_name":"구미정보고등학교","school_classification":"고등학교","operational_status":"운영","office_of_edu_code":8750000,"office_of_edu_name":"경상북도교육청","latitude":36.1185518,"longitude":128.4342303},
{"school_id":"B000012215","school_name":"와룡고등학교","school_classification":"고등학교","operational_status":"운영","office_of_edu_code":7240000,"office_of_edu_name":"대구광역시교육청","latitude":35.86137993,"longitude":128.5036794},
{"school_id":"B000013217","school_name":"도개고등학교","school_classification":"고등학교","operational_status":"운영","office_of_edu_code":8750000,"office_of_edu_name":"경상북도교육청","latitude":36.30151219,"longitude":128.3301698},
{"school_id":"B000011755","school_name":"경남관광고등학교","school_classification":"고등학교","operational_status":"운영","office_of_edu_code":9010000,"office_of_edu_name":"경상남도교육청","latitude":35.2485272,"longitude":128.6752628},
{"school_id":"B000011711","school_name":"경주디자인고등학교","school_classification":"고등학교","operational_status":"운영","office_of_edu_code":8750000,"office_of_edu_name":"경상북도교육청","latitude":35.90034715,"longitude":129.1632696},
{"school_id":"B000011716","school_name":"경북과학기술고등학교","school_classification":"고등학교","operational_status":"운영","office_of_edu_code":8750000,"office_of_edu_name":"경상북도교육청","latitude":36.15917383,"longitude":128.2429083},
{"school_id":"B000012150","school_name":"동아고등학교","school_classification":"고등학교","operational_status":"운영","office_of_edu_code":7150000,"office_of_edu_name":"부산광역시교육청","latitude":35.0934008,"longitude":128.9844284},
{"school_id":"B000013184","school_name":"선덕여자고등학교","school_classification":"고등학교","operational_status":"운영","office_of_edu_code":8750000,"office_of_edu_name":"경상북도교육청","latitude":35.83862147,"longitude":129.2242275},
{"school_id":"B000011370","school_name":"경남공업고등학교","school_classification":"고등학교","operational_status":"운영","office_of_edu_code":7150000,"office_of_edu_name":"부산광역시교육청","latitude":35.15334824,"longitude":129.0636387},
{"school_id":"B000011773","school_name":"창녕공업고등학교","school_classification":"고등학교","operational_status":"운영","office_of_edu_code":9010000,"office_of_edu_name":"경상남도교육청","latitude":35.56764195,"longitude":128.5084514},
{"school_id":"B000013167","school_name":"대동고등학교","school_classification":"고등학교","operational_status":"운영","office_of_edu_code":8750000,"office_of_edu_name":"경상북도교육청","latitude":36.05831145,"longitude":129.3571484},
{"school_id":"B000013197","school_name":"영문고등학교","school_classification":"고등학교","operational_status":"운영","office_of_edu_code":8750000,"office_of_edu_name":"경상북도교육청","latitude":36.5473692,"longitude":128.7208676},
{"school_id":"B000013176","school_name":"포항동성고등학교","school_classification":"고등학교","operational_status":"운영","office_of_edu_code":8750000,"office_of_edu_name":"경상북도교육청","latitude":35.98983978,"longitude":129.4398422},
{"school_id":"B000011396","school_name":"부산여자상업고등학교","school_classification":"고등학교","operational_status":"운영","office_of_edu_code":7150000,"office_of_edu_name":"부산광역시교육청","latitude":35.16911499,"longitude":129.0964447},
{"school_id":"B000013353","school_name":"김해경원고등학교","school_classification":"고등학교","operational_status":"운영","office_of_edu_code":9010000,"office_of_edu_name":"경상남도교육청","latitude":35.23185637,"longitude":128.8618172},
{"school_id":"B000013516","school_name":"경신고등학교","school_classification":"고등학교","operational_status":"운영","office_of_edu_code":7240000,"office_of_edu_name":"대구광역시교육청","latitude":35.85548176,"longitude":128.6375875},
{"school_id":"B000013392","school_name":"창녕대성고등학교","school_classification":"고등학교","operational_status":"운영","office_of_edu_code":9010000,"office_of_edu_name":"경상남도교육청","latitude":35.60134951,"longitude":128.4615163},
{"school_id":"B000011752","school_name":"창원공업고등학교","school_classification":"고등학교","operational_status":"운영","office_of_edu_code":9010000,"office_of_edu_name":"경상남도교육청","latitude":35.23631124,"longitude":128.6437086},
{"school_id":"B000013222","school_name":"영광여자고등학교","school_classification":"고등학교","operational_status":"운영","office_of_edu_code":8750000,"office_of_edu_name":"경상북도교육청","latitude":36.8319872,"longitude":128.6211922},
{"school_id":"B000013213","school_name":"선산고등학교","school_classification":"고등학교","operational_status":"운영","office_of_edu_code":8750000,"office_of_edu_name":"경상북도교육청","latitude":36.24820115,"longitude":128.2950623},
{"school_id":"B000011729","school_name":"상주공업고등학교","school_classification":"고등학교","operational_status":"운영","office_of_edu_code":8750000,"office_of_edu_name":"경상북도교육청","latitude":36.40665006,"longitude":128.1462224},
{"school_id":"B000024595","school_name":"청송자동차고등학교","school_classification":"고등학교","operational_status":"운영","office_of_edu_code":8750000,"office_of_edu_name":"경상북도교육청","latitude":36.34142109,"longitude":129.0603993},
{"school_id":"B000013210","school_name":"형곡고등학교","school_classification":"고등학교","operational_status":"운영","office_of_edu_code":8750000,"office_of_edu_name":"경상북도교육청","latitude":36.10150009,"longitude":128.3384215},
{"school_id":"B000011902","school_name":"구미전자공업고등학교","school_classification":"고등학교","operational_status":"운영","office_of_edu_code":8750000,"office_of_edu_name":"경상북도교육청","latitude":36.11720873,"longitude":128.4046109},
{"school_id":"B000013341","school_name":"삼천포여자고등학교","school_classification":"고등학교","operational_status":"운영","office_of_edu_code":9010000,"office_of_edu_name":"경상남도교육청","latitude":34.9347486,"longitude":128.0779665},
{"school_id":"B000011375","school_name":"동래원예고등학교","school_classification":"고등학교","operational_status":"운영","office_of_edu_code":7150000,"office_of_edu_name":"부산광역시교육청","latitude":35.2146459,"longitude":129.0754982},
{"school_id":"B000013168","school_name":"동지여자고등학교","school_classification":"고등학교","operational_status":"운영","office_of_edu_code":8750000,"office_of_edu_name":"경상북도교육청","latitude":36.0386531,"longitude":129.3467246},
{"school_id":"B000013262","school_name":"영해고등학교","school_classification":"고등학교","operational_status":"운영","office_of_edu_code":8750000,"office_of_edu_name":"경상북도교육청","latitude":36.54233749,"longitude":129.4132252},
{"school_id":"B000013161","school_name":"포항이동고등학교","school_classification":"고등학교","operational_status":"운영","office_of_edu_code":8750000,"office_of_edu_name":"경상북도교육청","latitude":36.02968696,"longitude":129.3335059},
{"school_id":"B000012402","school_name":"문수고등학교","school_classification":"고등학교","operational_status":"운영","office_of_edu_code":7480000,"office_of_edu_name":"울산광역시교육청","latitude":35.555692,"longitude":129.265401},
{"school_id":"B000013179","school_name":"경주여자고등학교","school_classification":"고등학교","operational_status":"운영","office_of_edu_code":8750000,"office_of_edu_name":"경상북도교육청","latitude":35.85752337,"longitude":129.2051264},
{"school_id":"B000012417","school_name":"울산동천고등학교","school_classification":"고등학교","operational_status":"운영","office_of_edu_code":7480000,"office_of_edu_name":"울산광역시교육청","latitude":35.63277988,"longitude":129.3388513},
{"school_id":"B000012104","school_name":"금성고등학교","school_classification":"고등학교","operational_status":"운영","office_of_edu_code":7150000,"office_of_edu_name":"부산광역시교육청","latitude":35.13463713,"longitude":129.0515092},
{"school_id":"B000013339","school_name":"삼천포중앙고등학교","school_classification":"고등학교","operational_status":"운영","office_of_edu_code":9010000,"office_of_edu_name":"경상남도교육청","latitude":34.93974186,"longitude":128.0898621},
{"school_id":"B000011712","school_name":"신라공업고등학교","school_classification":"고등학교","operational_status":"운영","office_of_edu_code":8750000,"office_of_edu_name":"경상북도교육청","latitude":35.8936469,"longitude":129.242522},
{"school_id":"B000013287","school_name":"진해고등학교","school_classification":"고등학교","operational_status":"운영","office_of_edu_code":9010000,"office_of_edu_name":"경상남도교육청","latitude":35.16081162,"longitude":128.6651789},
{"school_id":"B000013190","school_name":"김천여자고등학교","school_classification":"고등학교","operational_status":"운영","office_of_edu_code":8750000,"office_of_edu_name":"경상북도교육청","latitude":36.12743631,"longitude":128.1216469},
{"school_id":"B000012126","school_name":"분포고등학교","school_classification":"고등학교","operational_status":"운영","office_of_edu_code":7150000,"office_of_edu_name":"부산광역시교육청","latitude":35.1298126,"longitude":129.115149},
{"school_id":"B000012144","school_name":"부흥고등학교","school_classification":"고등학교","operational_status":"운영","office_of_edu_code":7150000,"office_of_edu_name":"부산광역시교육청","latitude":35.17367376,"longitude":129.180577},
{"school_id":"B000012395","school_name":"울산고등학교","school_classification":"고등학교","operational_status":"운영","office_of_edu_code":7480000,"office_of_edu_name":"울산광역시교육청","latitude":35.56309225,"longitude":129.3311353},
{"school_id":"B000011706","school_name":"경주공업고등학교","school_classification":"고등학교","operational_status":"운영","office_of_edu_code":8750000,"office_of_edu_name":"경상북도교육청","latitude":35.83555575,"longitude":129.2051046},
{"school_id":"B000011412","school_name":"대구전자공업고등학교","school_classification":"고등학교","operational_status":"운영","office_of_edu_code":7240000,"office_of_edu_name":"대구광역시교육청","latitude":35.84793267,"longitude":128.5297971},
{"school_id":"B000012107","school_name":"개금고등학교","school_classification":"고등학교","operational_status":"운영","office_of_edu_code":7150000,"office_of_edu_name":"부산광역시교육청","latitude":35.16087702,"longitude":129.0256396},
{"school_id":"B000012390","school_name":"울산중앙고등학교","school_classification":"고등학교","operational_status":"운영","office_of_edu_code":7480000,"office_of_edu_name":"울산광역시교육청","latitude":35.55609474,"longitude":129.2844496},
{"school_id":"B000011363","school_name":"부산관광고등학교","school_classification":"고등학교","operational_status":"운영","office_of_edu_code":7150000,"office_of_edu_name":"부산광역시교육청","latitude":35.08250055,"longitude":129.0222269},
{"school_id":"B000012143","school_name":"반여고등학교","school_classification":"고등학교","operational_status":"운영","office_of_edu_code":7150000,"office_of_edu_name":"부산광역시교육청","latitude":35.20295915,"longitude":129.1265612},
{"school_id":"B000011713","school_name":"삼성생활예술고등학교","school_classification":"고등학교","operational_status":"운영","office_of_edu_code":8750000,"office_of_edu_name":"경상북도교육청","latitude":35.75247154,"longitude":129.1993527},
{"school_id":"B000013228","school_name":"영천성남여자고등학교","school_classification":"고등학교","operational_status":"운영","office_of_edu_code":8750000,"office_of_edu_name":"경상북도교육청","latitude":35.9492794,"longitude":128.9317962},
{"school_id":"B000013338","school_name":"충렬여자고등학교","school_classification":"고등학교","operational_status":"운영","office_of_edu_code":9010000,"office_of_edu_name":"경상남도교육청","latitude":34.88688775,"longitude":128.4650492},
{"school_id":"B000011470","school_name":"현대공업고등학교","school_classification":"고등학교","operational_status":"운영","office_of_edu_code":7480000,"office_of_edu_name":"울산광역시교육청","latitude":35.53866837,"longitude":129.4308887},
{"school_id":"B000013252","school_name":"청송고등학교","school_classification":"고등학교","operational_status":"운영","office_of_edu_code":8750000,"office_of_edu_name":"경상북도교육청","latitude":36.43000334,"longitude":129.0576987},
{"school_id":"B000011394","school_name":"계성여자고등학교","school_classification":"고등학교","operational_status":"운영","office_of_edu_code":7150000,"office_of_edu_name":"부산광역시교육청","latitude":35.18297547,"longitude":129.0678658},
{"school_id":"B000012169","school_name":"부산동여자고등학교","school_classification":"고등학교","operational_status":"운영","office_of_edu_code":7150000,"office_of_edu_name":"부산광역시교육청","latitude":35.14602702,"longitude":129.1047285},
{"school_id":"B000013172","school_name":"세화고등학교","school_classification":"고등학교","operational_status":"운영","office_of_edu_code":8750000,"office_of_edu_name":"경상북도교육청","latitude":36.05282731,"longitude":129.3521047},
{"school_id":"B000012220","school_name":"경화여자고등학교","school_classification":"고등학교","operational_status":"운영","office_of_edu_code":7240000,"office_of_edu_name":"대구광역시교육청","latitude":35.84839511,"longitude":128.5486077},
{"school_id":"B000013514","school_name":"학남고등학교","school_classification":"고등학교","operational_status":"운영","office_of_edu_code":7240000,"office_of_edu_name":"대구광역시교육청","latitude":35.9462709,"longitude":128.5691977},
{"school_id":"B000012129","school_name":"대연고등학교","school_classification":"고등학교","operational_status":"운영","office_of_edu_code":7150000,"office_of_edu_name":"부산광역시교육청","latitude":35.12879874,"longitude":129.1019811},
{"school_id":"B000011707","school_name":"경주정보고등학교","school_classification":"고등학교","operational_status":"운영","office_of_edu_code":8750000,"office_of_edu_name":"경상북도교육청","latitude":35.84182328,"longitude":129.1763},
{"school_id":"B000012399","school_name":"울산여자고등학교","school_classification":"고등학교","operational_status":"운영","office_of_edu_code":7480000,"office_of_edu_name":"울산광역시교육청","latitude":35.5355867,"longitude":129.3095958},
{"school_id":"B000013293","school_name":"마산구암고등학교","school_classification":"고등학교","operational_status":"운영","office_of_edu_code":9010000,"office_of_edu_name":"경상남도교육청","latitude":35.24705748,"longitude":128.5968168},
{"school_id":"B000013423","school_name":"초계고등학교","school_classification":"고등학교","operational_status":"운영","office_of_edu_code":9010000,"office_of_edu_name":"경상남도교육청","latitude":35.55830281,"longitude":128.2709516},
{"school_id":"B000011818","school_name":"브니엘예술고등학교","school_classification":"고등학교","operational_status":"운영","office_of_edu_code":7150000,"office_of_edu_name":"부산광역시교육청","latitude":35.25485306,"longitude":129.1039264},
{"school_id":"B000013256","school_name":"현서고등학교","school_classification":"고등학교","operational_status":"운영","office_of_edu_code":8750000,"office_of_edu_name":"경상북도교육청","latitude":36.28145041,"longitude":128.8986233},
{"school_id":"B000012174","school_name":"부산장안고등학교","school_classification":"고등학교","operational_status":"운영","office_of_edu_code":7150000,"office_of_edu_name":"부산광역시교육청","latitude":35.31875901,"longitude":129.2361258},
{"school_id":"B000012184","school_name":"대구제일고등학교","school_classification":"고등학교","operational_status":"운영","office_of_edu_code":7240000,"office_of_edu_name":"대구광역시교육청","latitude":35.8706847,"longitude":128.5738084},
{"school_id":"B000013227","school_name":"선화여자고등학교","school_classification":"고등학교","operational_status":"운영","office_of_edu_code":8750000,"office_of_edu_name":"경상북도교육청","latitude":35.96797781,"longitude":128.9226812},
{"school_id":"B000013327","school_name":"진주동명고등학교","school_classification":"고등학교","operational_status":"운영","office_of_edu_code":9010000,"office_of_edu_name":"경상남도교육청","latitude":35.20257652,"longitude":128.1186979},
{"school_id":"B000011723","school_name":"영주동산고등학교","school_classification":"고등학교","operational_status":"운영","office_of_edu_code":8750000,"office_of_edu_name":"경상북도교육청","latitude":36.81859532,"longitude":128.6455598},
{"school_id":"B000013165","school_name":"포항영신고등학교","school_classification":"고등학교","operational_status":"운영","office_of_edu_code":8750000,"office_of_edu_name":"경상북도교육청","latitude":36.05945253,"longitude":129.351381},
{"school_id":"B000012194","school_name":"영송여자고등학교","school_classification":"고등학교","operational_status":"운영","office_of_edu_code":7240000,"office_of_edu_name":"대구광역시교육청","latitude":35.92901653,"longitude":128.5418413},
{"school_id":"B000013267","school_name":"대가야고등학교","school_classification":"고등학교","operational_status":"운영","office_of_edu_code":8750000,"office_of_edu_name":"경상북도교육청","latitude":35.7441136,"longitude":128.2714279},
{"school_id":"B000013268","school_name":"성주고등학교","school_classification":"고등학교","operational_status":"운영","office_of_edu_code":8750000,"office_of_edu_name":"경상북도교육청","latitude":35.93803345,"longitude":128.2746978},
{"school_id":"B000011736","school_name":"의성공업고등학교","school_classification":"고등학교","operational_status":"운영","office_of_edu_code":8750000,"office_of_edu_name":"경상북도교육청","latitude":36.35494747,"longitude":128.7010442},
{"school_id":"B000013334","school_name":"통영고등학교","school_classification":"고등학교","operational_status":"운영","office_of_edu_code":9010000,"office_of_edu_name":"경상남도교육청","latitude":34.82954734,"longitude":128.416198},
{"school_id":"B000011743","school_name":"고령고등학교","school_classification":"고등학교","operational_status":"운영","office_of_edu_code":8750000,"office_of_edu_name":"경상북도교육청","latitude":35.73565191,"longitude":128.2701005},
{"school_id":"B000013291","school_name":"창원여자고등학교","school_classification":"고등학교","operational_status":"운영","office_of_edu_code":9010000,"office_of_edu_name":"경상남도교육청","latitude":35.22788956,"longitude":128.6612262},
{"school_id":"B000012114","school_name":"경원고등학교","school_classification":"고등학교","operational_status":"운영","office_of_edu_code":7150000,"office_of_edu_name":"부산광역시교육청","latitude":35.16371025,"longitude":129.0318871},
{"school_id":"B000013376","school_name":"효암고등학교","school_classification":"고등학교","operational_status":"운영","office_of_edu_code":9010000,"office_of_edu_name":"경상남도교육청","latitude":35.41239092,"longitude":129.1699843},
{"school_id":"B000013578","school_name":"인동고등학교","school_classification":"고등학교","operational_status":"운영","office_of_edu_code":8750000,"office_of_edu_name":"경상북도교육청","latitude":36.0899616,"longitude":128.4322095},
{"school_id":"B000011722","school_name":"경북생활과학고등학교","school_classification":"고등학교","operational_status":"운영","office_of_edu_code":8750000,"office_of_edu_name":"경상북도교육청","latitude":36.19960113,"longitude":128.3922014},
{"school_id":"B000013248","school_name":"의성여자고등학교","school_classification":"고등학교","operational_status":"운영","office_of_edu_code":8750000,"office_of_edu_name":"경상북도교육청","latitude":36.36119866,"longitude":128.6969518},
{"school_id":"B000013233","school_name":"상지여자상업고등학교","school_classification":"고등학교","operational_status":"운영","office_of_edu_code":8750000,"office_of_edu_name":"경상북도교육청","latitude":36.5693225,"longitude":128.1851504},
{"school_id":"B000011414","school_name":"상서고등학교","school_classification":"고등학교","operational_status":"운영","office_of_edu_code":7240000,"office_of_edu_name":"대구광역시교육청","latitude":35.84643612,"longitude":128.5498704},
{"school_id":"B000013234","school_name":"화령고등학교","school_classification":"고등학교","operational_status":"운영","office_of_edu_code":8750000,"office_of_edu_name":"경상북도교육청","latitude":36.44245211,"longitude":127.9458942},
{"school_id":"B000023830","school_name":"강동고등학교","school_classification":"고등학교","operational_status":"운영","office_of_edu_code":7480000,"office_of_edu_name":"울산광역시교육청","latitude":35.63275915,"longitude":129.435202},
{"school_id":"B000022700","school_name":"정관고등학교","school_classification":"고등학교","operational_status":"운영","office_of_edu_code":7150000,"office_of_edu_name":"부산광역시교육청","latitude":35.3220883,"longitude":129.170237},
{"school_id":"B000013226","school_name":"영동고등학교","school_classification":"고등학교","operational_status":"운영","office_of_edu_code":8750000,"office_of_edu_name":"경상북도교육청","latitude":35.97778874,"longitude":128.9465541},
{"school_id":"B000013193","school_name":"성의여자고등학교","school_classification":"고등학교","operational_status":"운영","office_of_edu_code":8750000,"office_of_edu_name":"경상북도교육청","latitude":36.11961289,"longitude":128.1133186},
{"school_id":"B000013361","school_name":"밀양여자고등학교","school_classification":"고등학교","operational_status":"운영","office_of_edu_code":9010000,"office_of_edu_name":"경상남도교육청","latitude":35.49521193,"longitude":128.7559345},
{"school_id":"B000013192","school_name":"한일여자고등학교","school_classification":"고등학교","operational_status":"운영","office_of_edu_code":8750000,"office_of_edu_name":"경상북도교육청","latitude":36.1377533,"longitude":128.0958438},
{"school_id":"B000013174","school_name":"오천고등학교","school_classification":"고등학교","operational_status":"운영","office_of_edu_code":8750000,"office_of_edu_name":"경상북도교육청","latitude":35.96902488,"longitude":129.4127932},
{"school_id":"B000012098","school_name":"동주여자고등학교","school_classification":"고등학교","operational_status":"운영","office_of_edu_code":7150000,"office_of_edu_name":"부산광역시교육청","latitude":35.1009708,"longitude":129.0313539},
{"school_id":"B000013505","school_name":"경북여자고등학교","school_classification":"고등학교","operational_status":"운영","office_of_edu_code":7240000,"office_of_edu_name":"대구광역시교육청","latitude":35.85842716,"longitude":128.5922004},
{"school_id":"B000013204","school_name":"구미고등학교","school_classification":"고등학교","operational_status":"운영","office_of_edu_code":8750000,"office_of_edu_name":"경상북도교육청","latitude":36.13777736,"longitude":128.3327162},
{"school_id":"B000013372","school_name":"서창고등학교","school_classification":"고등학교","operational_status":"운영","office_of_edu_code":9010000,"office_of_edu_name":"경상남도교육청","latitude":35.41400251,"longitude":129.1741433},
{"school_id":"B000013230","school_name":"상주고등학교","school_classification":"고등학교","operational_status":"운영","office_of_edu_code":8750000,"office_of_edu_name":"경상북도교육청","latitude":36.40249516,"longitude":128.1596458},
{"school_id":"B000011826","school_name":"대구외국어고등학교","school_classification":"고등학교","operational_status":"운영","office_of_edu_code":7240000,"office_of_edu_name":"대구광역시교육청","latitude":35.8604438,"longitude":128.4980612},
{"school_id":"B000013264","school_name":"모계고등학교","school_classification":"고등학교","operational_status":"운영","office_of_edu_code":8750000,"office_of_edu_name":"경상북도교육청","latitude":35.6494626,"longitude":128.7359915},
{"school_id":"B000011815","school_name":"부산자동차고등학교","school_classification":"고등학교","operational_status":"운영","office_of_edu_code":7150000,"office_of_edu_name":"부산광역시교육청","latitude":35.07556112,"longitude":128.9643074},
{"school_id":"B000013254","school_name":"진보고등학교","school_classification":"고등학교","operational_status":"운영","office_of_edu_code":8750000,"office_of_edu_name":"경상북도교육청","latitude":36.53283897,"longitude":129.0414201},
{"school_id":"B000013271","school_name":"순심고등학교","school_classification":"고등학교","operational_status":"운영","office_of_edu_code":8750000,"office_of_edu_name":"경상북도교육청","latitude":35.9864732,"longitude":128.4032262},
{"school_id":"B000013324","school_name":"진주여자고등학교","school_classification":"고등학교","operational_status":"운영","office_of_edu_code":9010000,"office_of_edu_name":"경상남도교육청","latitude":35.20114847,"longitude":128.0767716},
{"school_id":"B000013306","school_name":"마산중앙고등학교","school_classification":"고등학교","operational_status":"운영","office_of_edu_code":9010000,"office_of_edu_name":"경상남도교육청","latitude":35.19192849,"longitude":128.5584266},
{"school_id":"B000013576","school_name":"김천고등학교","school_classification":"고등학교","operational_status":"운영","office_of_edu_code":8750000,"office_of_edu_name":"경상북도교육청","latitude":36.12343109,"longitude":128.0939955},
{"school_id":"B000011391","school_name":"대진전자통신고등학교","school_classification":"고등학교","operational_status":"운영","office_of_edu_code":7150000,"office_of_edu_name":"부산광역시교육청","latitude":35.24150549,"longitude":129.0818052},
{"school_id":"B000013373","school_name":"웅상고등학교","school_classification":"고등학교","operational_status":"운영","office_of_edu_code":9010000,"office_of_edu_name":"경상남도교육청","latitude":35.37814867,"longitude":129.1450388},
{"school_id":"B000012403","school_name":"삼산고등학교","school_classification":"고등학교","operational_status":"운영","office_of_edu_code":7480000,"office_of_edu_name":"울산광역시교육청","latitude":35.5452569,"longitude":129.3413314},
{"school_id":"B000012170","school_name":"덕문여자고등학교","school_classification":"고등학교","operational_status":"운영","office_of_edu_code":7150000,"office_of_edu_name":"부산광역시교육청","latitude":35.16774439,"longitude":129.1036484},
{"school_id":"B000011701","school_name":"포항해양과학고등학교","school_classification":"고등학교","operational_status":"운영","office_of_edu_code":8750000,"office_of_edu_name":"경상북도교육청","latitude":36.07418804,"longitude":129.4061983},
{"school_id":"B000011378","school_name":"한국조형예술고등학교","school_classification":"고등학교","operational_status":"운영","office_of_edu_code":7150000,"office_of_edu_name":"부산광역시교육청","latitude":35.12048796,"longitude":129.1165597},
{"school_id":"B000013508","school_name":"달성고등학교","school_classification":"고등학교","operational_status":"운영","office_of_edu_code":7240000,"office_of_edu_name":"대구광역시교육청","latitude":35.85893186,"longitude":128.5553428},
{"school_id":"B000011901","school_name":"김천예술고등학교","school_classification":"고등학교","operational_status":"운영","office_of_edu_code":8750000,"office_of_edu_name":"경상북도교육청","latitude":36.13774035,"longitude":128.0958438},
{"school_id":"B000012198","school_name":"경북고등학교","school_classification":"고등학교","operational_status":"운영","office_of_edu_code":7240000,"office_of_edu_name":"대구광역시교육청","latitude":35.84474469,"longitude":128.6416344},
{"school_id":"B000012142","school_name":"양운고등학교","school_classification":"고등학교","operational_status":"운영","office_of_edu_code":7150000,"office_of_edu_name":"부산광역시교육청","latitude":35.17786581,"longitude":129.1705491},
{"school_id":"B000012407","school_name":"성광여자고등학교","school_classification":"고등학교","operational_status":"운영","office_of_edu_code":7480000,"office_of_edu_name":"울산광역시교육청","latitude":35.54314574,"longitude":129.2658489},
{"school_id":"B000013205","school_name":"구미여자고등학교","school_classification":"고등학교","operational_status":"운영","office_of_edu_code":8750000,"office_of_edu_name":"경상북도교육청","latitude":36.1444646,"longitude":128.3316915},
{"school_id":"B000011388","school_name":"동아공업고등학교","school_classification":"고등학교","operational_status":"운영","office_of_edu_code":7150000,"office_of_edu_name":"부산광역시교육청","latitude":35.09322008,"longitude":128.9884286},
{"school_id":"B000013414","school_name":"거창여자고등학교","school_classification":"고등학교","operational_status":"운영","office_of_edu_code":9010000,"office_of_edu_name":"경상남도교육청","latitude":35.69301165,"longitude":127.9097869},
{"school_id":"B000011751","school_name":"마산공업고등학교","school_classification":"고등학교","operational_status":"운영","office_of_edu_code":9010000,"office_of_edu_name":"경상남도교육청","latitude":35.24416345,"longitude":128.5959635},
{"school_id":"B000012149","school_name":"건국고등학교","school_classification":"고등학교","operational_status":"운영","office_of_edu_code":7150000,"office_of_edu_name":"부산광역시교육청","latitude":35.10952808,"longitude":128.9696164},
{"school_id":"B000013221","school_name":"대영고등학교","school_classification":"고등학교","operational_status":"운영","office_of_edu_code":8750000,"office_of_edu_name":"경상북도교육청","latitude":36.808976,"longitude":128.6322184},
{"school_id":"B000013274","school_name":"경북기계명장고등학교","school_classification":"고등학교","operational_status":"운영","office_of_edu_code":8750000,"office_of_edu_name":"경상북도교육청","latitude":35.95847599,"longitude":128.483912},
{"school_id":"B000013500","school_name":"부산여자고등학교","school_classification":"고등학교","operational_status":"운영","office_of_edu_code":7150000,"office_of_edu_name":"부산광역시교육청","latitude":35.11150068,"longitude":128.9674864},
{"school_id":"B000013187","school_name":"효청보건고등학교","school_classification":"고등학교","operational_status":"운영","office_of_edu_code":8750000,"office_of_edu_name":"경상북도교육청","latitude":35.67205616,"longitude":129.3408545},
{"school_id":"B000013507","school_name":"강동고등학교","school_classification":"고등학교","operational_status":"운영","office_of_edu_code":7240000,"office_of_edu_name":"대구광역시교육청","latitude":35.865983,"longitude":128.7296127},
{"school_id":"B000011904","school_name":"경북외국어고등학교","school_classification":"고등학교","operational_status":"운영","office_of_edu_code":8750000,"office_of_edu_name":"경상북도교육청","latitude":36.12450267,"longitude":128.3220899},
{"school_id":"B000011744","school_name":"명인고등학교","school_classification":"고등학교","operational_status":"운영","office_of_edu_code":8750000,"office_of_edu_name":"경상북도교육청","latitude":35.88583823,"longitude":128.3642206},
{"school_id":"B000011377","school_name":"부산공업고등학교","school_classification":"고등학교","operational_status":"운영","office_of_edu_code":7150000,"office_of_edu_name":"부산광역시교육청","latitude":35.13016741,"longitude":129.0876872},
{"school_id":"B000011372","school_name":"부산마케팅고등학교","school_classification":"고등학교","operational_status":"운영","office_of_edu_code":7150000,"office_of_edu_name":"부산광역시교육청","latitude":35.15108044,"longitude":129.0704528},
{"school_id":"B000011390","school_name":"금정전자공업고등학교","school_classification":"고등학교","operational_status":"운영","office_of_edu_code":7150000,"office_of_edu_name":"부산광역시교육청","latitude":35.22173328,"longitude":129.1073012},
{"school_id":"B000013511","school_name":"경일여자고등학교","school_classification":"고등학교","operational_status":"운영","office_of_edu_code":7240000,"office_of_edu_name":"대구광역시교육청","latitude":35.83640873,"longitude":128.5968171},
{"school_id":"B000011754","school_name":"진해세화여자고등학교","school_classification":"고등학교","operational_status":"운영","office_of_edu_code":9010000,"office_of_edu_name":"경상남도교육청","latitude":35.16141045,"longitude":128.6942172},
{"school_id":"B000013216","school_name":"오상고등학교","school_classification":"고등학교","operational_status":"운영","office_of_edu_code":8750000,"office_of_edu_name":"경상북도교육청","latitude":36.12502535,"longitude":128.4961942},
{"school_id":"B000013309","school_name":"창원남고등학교","school_classification":"고등학교","operational_status":"운영","office_of_edu_code":9010000,"office_of_edu_name":"경상남도교육청","latitude":35.21397156,"longitude":128.6797496},
{"school_id":"B000011402","school_name":"달구벌고등학교","school_classification":"고등학교","operational_status":"운영","office_of_edu_code":7240000,"office_of_edu_name":"대구광역시교육청","latitude":35.99454114,"longitude":128.6108132},
{"school_id":"B000012418","school_name":"무룡고등학교","school_classification":"고등학교","operational_status":"운영","office_of_edu_code":7480000,"office_of_edu_name":"울산광역시교육청","latitude":35.58665093,"longitude":129.3616127},
{"school_id":"B000013380","school_name":"의령고등학교","school_classification":"고등학교","operational_status":"운영","office_of_edu_code":9010000,"office_of_edu_name":"경상남도교육청","latitude":35.32282215,"longitude":128.2654601},
{"school_id":"B000012188","school_name":"운암고등학교","school_classification":"고등학교","operational_status":"운영","office_of_edu_code":7240000,"office_of_edu_name":"대구광역시교육청","latitude":35.938834,"longitude":128.5637524},
{"school_id":"B000012157","school_name":"금정여자고등학교","school_classification":"고등학교","operational_status":"운영","office_of_edu_code":7150000,"office_of_edu_name":"부산광역시교육청","latitude":35.22026157,"longitude":129.1011474},
{"school_id":"B000011376","school_name":"부산전자공업고등학교","school_classification":"고등학교","operational_status":"운영","office_of_edu_code":7150000,"office_of_edu_name":"부산광역시교육청","latitude":35.21560631,"longitude":129.0730588},
{"school_id":"B000012396","school_name":"신정고등학교","school_classification":"고등학교","operational_status":"운영","office_of_edu_code":7480000,"office_of_edu_name":"울산광역시교육청","latitude":35.53293825,"longitude":129.3019906},
{"school_id":"B000013390","school_name":"영산고등학교","school_classification":"고등학교","operational_status":"운영","office_of_edu_code":9010000,"office_of_edu_name":"경상남도교육청","latitude":35.4596521,"longitude":128.5281631},
{"school_id":"B000013314","school_name":"성지여자고등학교","school_classification":"고등학교","operational_status":"운영","office_of_edu_code":9010000,"office_of_edu_name":"경상남도교육청","latitude":35.19793925,"longitude":128.5598321},
{"school_id":"B000012195","school_name":"성화여자고등학교","school_classification":"고등학교","operational_status":"운영","office_of_edu_code":7240000,"office_of_edu_name":"대구광역시교육청","latitude":35.9032298,"longitude":128.620265},
{"school_id":"B000011380","school_name":"배정미래고등학교","school_classification":"고등학교","operational_status":"운영","office_of_edu_code":7150000,"office_of_edu_name":"부산광역시교육청","latitude":35.13109322,"longitude":129.0680868},
{"school_id":"B000011765","school_name":"김해한일여자고등학교","school_classification":"고등학교","operational_status":"운영","office_of_edu_code":9010000,"office_of_edu_name":"경상남도교육청","latitude":35.23924195,"longitude":128.9166756},
{"school_id":"B000013225","school_name":"영천여자고등학교","school_classification":"고등학교","operational_status":"운영","office_of_edu_code":8750000,"office_of_edu_name":"경상북도교육청","latitude":35.96231029,"longitude":128.9201491},
{"school_id":"B000011386","school_name":"해운대관광고등학교","school_classification":"고등학교","operational_status":"운영","office_of_edu_code":7150000,"office_of_edu_name":"부산광역시교육청","latitude":35.17052556,"longitude":129.1571278},
{"school_id":"B000013289","school_name":"창원명지여자고등학교","school_classification":"고등학교","operational_status":"운영","office_of_edu_code":9010000,"office_of_edu_name":"경상남도교육청","latitude":35.2518467,"longitude":128.6489261},
{"school_id":"B000012131","school_name":"한얼고등학교","school_classification":"고등학교","operational_status":"운영","office_of_edu_code":7150000,"office_of_edu_name":"부산광역시교육청","latitude":35.14615209,"longitude":129.0713257},
{"school_id":"B000013515","school_name":"수성고등학교","school_classification":"고등학교","operational_status":"운영","office_of_edu_code":7240000,"office_of_edu_name":"대구광역시교육청","latitude":35.82127653,"longitude":128.625466},
{"school_id":"B000013371","school_name":"양산남부고등학교","school_classification":"고등학교","operational_status":"운영","office_of_edu_code":9010000,"office_of_edu_name":"경상남도교육청","latitude":35.33258201,"longitude":129.0247489},
{"school_id":"B000012400","school_name":"신선여자고등학교","school_classification":"고등학교","operational_status":"운영","office_of_edu_code":7480000,"office_of_edu_name":"울산광역시교육청","latitude":35.52506185,"longitude":129.3259457},
{"school_id":"B000011846","school_name":"울산외국어고등학교","school_classification":"고등학교","operational_status":"운영","office_of_edu_code":7480000,"office_of_edu_name":"울산광역시교육청","latitude":35.65878666,"longitude":129.3541754},
{"school_id":"B000013369","school_name":"연초고등학교","school_classification":"고등학교","operational_status":"운영","office_of_edu_code":9010000,"office_of_edu_name":"경상남도교육청","latitude":34.9136521,"longitude":128.6470793},
{"school_id":"B000011703","school_name":"포항과학기술고등학교","school_classification":"고등학교","operational_status":"운영","office_of_edu_code":8750000,"office_of_edu_name":"경상북도교육청","latitude":35.99179076,"longitude":129.5659125},
{"school_id":"B000011912","school_name":"김해외국어고등학교","school_classification":"고등학교","operational_status":"운영","office_of_edu_code":9010000,"office_of_edu_name":"경상남도교육청","latitude":35.1708261,"longitude":128.8046616},
{"school_id":"B000011770","school_name":"경남산업고등학교","school_classification":"고등학교","operational_status":"운영","office_of_edu_code":9010000,"office_of_edu_name":"경상남도교육청","latitude":34.9534356,"longitude":128.6539233},
{"school_id":"B000013382","school_name":"함안고등학교","school_classification":"고등학교","operational_status":"운영","office_of_edu_code":9010000,"office_of_edu_name":"경상남도교육청","latitude":35.28213268,"longitude":128.4033051},
{"school_id":"B000011774","school_name":"경남항공고등학교","school_classification":"고등학교","operational_status":"운영","office_of_edu_code":9010000,"office_of_edu_name":"경상남도교육청","latitude":34.97853358,"longitude":128.3073889},
{"school_id":"B000011719","school_name":"경북하이텍고등학교","school_classification":"고등학교","operational_status":"운영","office_of_edu_code":8750000,"office_of_edu_name":"경상북도교육청","latitude":36.56955793,"longitude":128.7018414},
{"school_id":"B000012227","school_name":"현풍고등학교","school_classification":"고등학교","operational_status":"운영","office_of_edu_code":7240000,"office_of_edu_name":"대구광역시교육청","latitude":35.6985296,"longitude":128.4382371},
{"school_id":"B000013303","school_name":"창원사파고등학교","school_classification":"고등학교","operational_status":"운영","office_of_edu_code":9010000,"office_of_edu_name":"경상남도교육청","latitude":35.22158696,"longitude":128.7045404},
{"school_id":"B000013331","school_name":"대곡고등학교","school_classification":"고등학교","operational_status":"운영","office_of_edu_code":9010000,"office_of_edu_name":"경상남도교육청","latitude":35.2624116,"longitude":128.1663986},
{"school_id":"B000013491","school_name":"경남여자고등학교","school_classification":"고등학교","operational_status":"운영","office_of_edu_code":7150000,"office_of_edu_name":"부산광역시교육청","latitude":35.13292384,"longitude":129.0439489},
{"school_id":"B000013330","school_name":"진주제일여자고등학교","school_classification":"고등학교","operational_status":"운영","office_of_edu_code":9010000,"office_of_edu_name":"경상남도교육청","latitude":35.19065525,"longitude":128.1143105},
{"school_id":"B000012413","school_name":"현대고등학교","school_classification":"고등학교","operational_status":"운영","office_of_edu_code":7480000,"office_of_edu_name":"울산광역시교육청","latitude":35.52521961,"longitude":129.4216686},
{"school_id":"B000011410","school_name":"대구달서공업고등학교","school_classification":"고등학교","operational_status":"운영","office_of_edu_code":7240000,"office_of_edu_name":"대구광역시교육청","latitude":35.82324215,"longitude":128.5386414},
{"school_id":"B000013231","school_name":"우석여자고등학교","school_classification":"고등학교","operational_status":"운영","office_of_edu_code":8750000,"office_of_edu_name":"경상북도교육청","latitude":36.42809793,"longitude":128.1635092},
{"school_id":"B000013323","school_name":"명신고등학교","school_classification":"고등학교","operational_status":"운영","office_of_edu_code":9010000,"office_of_edu_name":"경상남도교육청","latitude":35.21571985,"longitude":128.1143969},
{"school_id":"B000011728","school_name":"상산전자고등학교","school_classification":"고등학교","operational_status":"운영","office_of_edu_code":8750000,"office_of_edu_name":"경상북도교육청","latitude":36.43009163,"longitude":128.161317},
{"school_id":"B000013325","school_name":"진주중앙고등학교","school_classification":"고등학교","operational_status":"운영","office_of_edu_code":9010000,"office_of_edu_name":"경상남도교육청","latitude":35.19400986,"longitude":128.1190142},
{"school_id":"B000013590","school_name":"거제제일고등학교","school_classification":"고등학교","operational_status":"운영","office_of_edu_code":9010000,"office_of_edu_name":"경상남도교육청","latitude":34.85197194,"longitude":128.5867996},
{"school_id":"B000013299","school_name":"창원신월고등학교","school_classification":"고등학교","operational_status":"운영","office_of_edu_code":9010000,"office_of_edu_name":"경상남도교육청","latitude":35.22683773,"longitude":128.6936719},
{"school_id":"B000013206","school_name":"금오고등학교","school_classification":"고등학교","operational_status":"운영","office_of_edu_code":8750000,"office_of_edu_name":"경상북도교육청","latitude":36.10894994,"longitude":128.3556319},
{"school_id":"B000012137","school_name":"만덕고등학교","school_classification":"고등학교","operational_status":"운영","office_of_edu_code":7150000,"office_of_edu_name":"부산광역시교육청","latitude":35.20179406,"longitude":129.0345872},
{"school_id":"B000023212","school_name":"대구가톨릭대학교사범대학부속무학고등학교","school_classification":"고등학교","operational_status":"운영","office_of_edu_code":8750000,"office_of_edu_name":"경상북도교육청","latitude":35.92002869,"longitude":128.8159912},
{"school_id":"B000012398","school_name":"대현고등학교","school_classification":"고등학교","operational_status":"운영","office_of_edu_code":7480000,"office_of_edu_name":"울산광역시교육청","latitude":35.5261322,"longitude":129.3243389},
{"school_id":"B000011368","school_name":"부산보건고등학교","school_classification":"고등학교","operational_status":"운영","office_of_edu_code":7150000,"office_of_edu_name":"부산광역시교육청","latitude":35.0815515,"longitude":129.0412838},
{"school_id":"B000012410","school_name":"대송고등학교","school_classification":"고등학교","operational_status":"운영","office_of_edu_code":7480000,"office_of_edu_name":"울산광역시교육청","latitude":35.50566855,"longitude":129.4190091},
{"school_id":"B000012397","school_name":"학성고등학교","school_classification":"고등학교","operational_status":"운영","office_of_edu_code":7480000,"office_of_edu_name":"울산광역시교육청","latitude":35.5316044,"longitude":129.3003274},
{"school_id":"B000012219","school_name":"효성여자고등학교","school_classification":"고등학교","operational_status":"운영","office_of_edu_code":7240000,"office_of_edu_name":"대구광역시교육청","latitude":35.83430422,"longitude":128.5284024},
{"school_id":"B000012151","school_name":"해동고등학교","school_classification":"고등학교","operational_status":"운영","office_of_edu_code":7150000,"office_of_edu_name":"부산광역시교육청","latitude":35.09285454,"longitude":128.9904231},
{"school_id":"B000013397","school_name":"남해고등학교","school_classification":"고등학교","operational_status":"운영","office_of_edu_code":9010000,"office_of_edu_name":"경상남도교육청","latitude":34.80280046,"longitude":127.951543},
{"school_id":"B000012175","school_name":"신정고등학교","school_classification":"고등학교","operational_status":"운영","office_of_edu_code":7150000,"office_of_edu_name":"부산광역시교육청","latitude":35.32826001,"longitude":129.1667905},
{"school_id":"B000011384","school_name":"부산문화여자고등학교","school_classification":"고등학교","operational_status":"운영","office_of_edu_code":7150000,"office_of_edu_name":"부산광역시교육청","latitude":35.16591884,"longitude":129.1435338},
{"school_id":"B000012185","school_name":"심인고등학교","school_classification":"고등학교","operational_status":"운영","office_of_edu_code":7240000,"office_of_edu_name":"대구광역시교육청","latitude":35.84969989,"longitude":128.5783335},
{"school_id":"B000023098","school_name":"사동고등학교","school_classification":"고등학교","operational_status":"운영","office_of_edu_code":8750000,"office_of_edu_name":"경상북도교육청","latitude":35.809014,"longitude":128.7514077},
{"school_id":"B000011727","school_name":"영천전자고등학교","school_classification":"고등학교","operational_status":"운영","office_of_edu_code":8750000,"office_of_edu_name":"경상북도교육청","latitude":36.06838306,"longitude":128.897874},
{"school_id":"B000013229","school_name":"포은고등학교","school_classification":"고등학교","operational_status":"운영","office_of_edu_code":8750000,"office_of_edu_name":"경상북도교육청","latitude":35.93945644,"longitude":128.8786471},
{"school_id":"B000011709","school_name":"안강전자고등학교","school_classification":"고등학교","operational_status":"운영","office_of_edu_code":8750000,"office_of_edu_name":"경상북도교육청","latitude":35.99278593,"longitude":129.2298687},
{"school_id":"B000013494","school_name":"부산진고등학교","school_classification":"고등학교","operational_status":"운영","office_of_edu_code":7150000,"office_of_edu_name":"부산광역시교육청","latitude":35.17978878,"longitude":129.0552176},
{"school_id":"B000012111","school_name":"부산진여자고등학교","school_classification":"고등학교","operational_status":"운영","office_of_edu_code":7150000,"office_of_edu_name":"부산광역시교육청","latitude":35.16950074,"longitude":129.0750971},
{"school_id":"B000013311","school_name":"진해중앙고등학교","school_classification":"고등학교","operational_status":"운영","office_of_edu_code":9010000,"office_of_edu_name":"경상남도교육청","latitude":35.16163171,"longitude":128.6893971},
{"school_id":"B000011405","school_name":"경상공업고등학교","school_classification":"고등학교","operational_status":"운영","office_of_edu_code":7240000,"office_of_edu_name":"대구광역시교육청","latitude":35.8452186,"longitude":128.5741961},
{"school_id":"B000012145","school_name":"신도고등학교","school_classification":"고등학교","operational_status":"운영","office_of_edu_code":7150000,"office_of_edu_name":"부산광역시교육청","latitude":35.17207941,"longitude":129.1674214},
{"school_id":"B000013374","school_name":"양산여자고등학교","school_classification":"고등학교","operational_status":"운영","office_of_edu_code":9010000,"office_of_edu_name":"경상남도교육청","latitude":35.34455592,"longitude":129.0250861},
{"school_id":"B000013504","school_name":"주례여자고등학교","school_classification":"고등학교","operational_status":"운영","office_of_edu_code":7150000,"office_of_edu_name":"부산광역시교육청","latitude":35.14536511,"longitude":129.0135597},
{"school_id":"B000013512","school_name":"칠성고등학교","school_classification":"고등학교","operational_status":"운영","office_of_edu_code":7240000,"office_of_edu_name":"대구광역시교육청","latitude":35.88060728,"longitude":128.5912615},
{"school_id":"B000012147","school_name":"해운대여자고등학교","school_classification":"고등학교","operational_status":"운영","office_of_edu_code":7150000,"office_of_edu_name":"부산광역시교육청","latitude":35.16960195,"longitude":129.1530235},
{"school_id":"B000012186","school_name":"협성고등학교","school_classification":"고등학교","operational_status":"운영","office_of_edu_code":7240000,"office_of_edu_name":"대구광역시교육청","latitude":35.83479736,"longitude":128.5985816},
{"school_id":"B000012152","school_name":"대동고등학교","school_classification":"고등학교","operational_status":"운영","office_of_edu_code":7150000,"office_of_edu_name":"부산광역시교육청","latitude":35.0873648,"longitude":128.9842391},
{"school_id":"B000025453","school_name":"구미산동고등학교","school_classification":"고등학교","operational_status":"운영","office_of_edu_code":8750000,"office_of_edu_name":"경상북도교육청","latitude":36.15915025,"longitude":128.436368},
{"school_id":"B000011906","school_name":"경산과학고등학교","school_classification":"고등학교","operational_status":"운영","office_of_edu_code":8750000,"office_of_edu_name":"경상북도교육청","latitude":35.8220201,"longitude":128.7688881},
{"school_id":"B000012103","school_name":"부산고등학교","school_classification":"고등학교","operational_status":"운영","office_of_edu_code":7150000,"office_of_edu_name":"부산광역시교육청","latitude":35.12146725,"longitude":129.0366296},
{"school_id":"B000012224","school_name":"대원고등학교","school_classification":"고등학교","operational_status":"운영","office_of_edu_code":7240000,"office_of_edu_name":"대구광역시교육청","latitude":35.80668948,"longitude":128.5070767},
{"school_id":"B000013542","school_name":"현대청운고등학교","school_classification":"고등학교","operational_status":"운영","office_of_edu_code":7480000,"office_of_edu_name":"울산광역시교육청","latitude":35.53655854,"longitude":129.4280974},
{"school_id":"B000012192","school_name":"경상고등학교","school_classification":"고등학교","operational_status":"운영","office_of_edu_code":7240000,"office_of_edu_name":"대구광역시교육청","latitude":35.90189918,"longitude":128.621534},
{"school_id":"B000012205","school_name":"대구혜화여자고등학교","school_classification":"고등학교","operational_status":"운영","office_of_edu_code":7240000,"office_of_edu_name":"대구광역시교육청","latitude":35.84985719,"longitude":128.647666},
{"school_id":"B000011474","school_name":"울산산업고등학교","school_classification":"고등학교","operational_status":"운영","office_of_edu_code":7480000,"office_of_edu_name":"울산광역시교육청","latitude":35.55329893,"longitude":129.1157235},
{"school_id":"B000011471","school_name":"울산상업고등학교","school_classification":"고등학교","operational_status":"운영","office_of_edu_code":7480000,"office_of_edu_name":"울산광역시교육청","latitude":35.55693466,"longitude":129.2560364},
{"school_id":"B000012393","school_name":"함월고등학교","school_classification":"고등학교","operational_status":"운영","office_of_edu_code":7480000,"office_of_edu_name":"울산광역시교육청","latitude":35.56136572,"longitude":129.2972888},
{"school_id":"B000012190","school_name":"강북고등학교","school_classification":"고등학교","operational_status":"운영","office_of_edu_code":7240000,"office_of_edu_name":"대구광역시교육청","latitude":35.92972817,"longitude":128.5412228},
{"school_id":"B000011824","school_name":"대구과학고등학교","school_classification":"고등학교","operational_status":"운영","office_of_edu_code":7240000,"office_of_edu_name":"대구광역시교육청","latitude":35.844679,"longitude":128.6254904},
{"school_id":"B000013310","school_name":"창원경일고등학교","school_classification":"고등학교","operational_status":"운영","office_of_edu_code":9010000,"office_of_edu_name":"경상남도교육청","latitude":35.22658657,"longitude":128.6612134},
{"school_id":"B000013308","school_name":"경상고등학교","school_classification":"고등학교","operational_status":"운영","office_of_edu_code":9010000,"office_of_edu_name":"경상남도교육청","latitude":35.26096745,"longitude":128.6005154},
{"school_id":"B000012156","school_name":"내성고등학교","school_classification":"고등학교","operational_status":"운영","office_of_edu_code":7150000,"office_of_edu_name":"부산광역시교육청","latitude":35.22138302,"longitude":129.0927454},
{"school_id":"B000013275","school_name":"동명고등학교","school_classification":"고등학교","operational_status":"운영","office_of_edu_code":8750000,"office_of_edu_name":"경상북도교육청","latitude":35.98517727,"longitude":128.549309},
{"school_id":"B000012113","school_name":"가야고등학교","school_classification":"고등학교","operational_status":"운영","office_of_edu_code":7150000,"office_of_edu_name":"부산광역시교육청","latitude":35.14630264,"longitude":129.0310877},
{"school_id":"B000013381","school_name":"의령여자고등학교","school_classification":"고등학교","operational_status":"운영","office_of_edu_code":9010000,"office_of_edu_name":"경상남도교육청","latitude":35.32416174,"longitude":128.2453647},
{"school_id":"B000012101","school_name":"부산서여자고등학교","school_classification":"고등학교","operational_status":"운영","office_of_edu_code":7150000,"office_of_edu_name":"부산광역시교육청","latitude":35.1134021,"longitude":129.0213157},
{"school_id":"B000012200","school_name":"시지고등학교","school_classification":"고등학교","operational_status":"운영","office_of_edu_code":7240000,"office_of_edu_name":"대구광역시교육청","latitude":35.83012049,"longitude":128.7074167},
{"school_id":"B000011814","school_name":"부산일과학고등학교","school_classification":"고등학교","operational_status":"운영","office_of_edu_code":7150000,"office_of_edu_name":"부산광역시교육청","latitude":35.11720995,"longitude":128.9888935},
{"school_id":"B000012392","school_name":"울산중앙여자고등학교","school_classification":"고등학교","operational_status":"운영","office_of_edu_code":7480000,"office_of_edu_name":"울산광역시교육청","latitude":35.55458461,"longitude":129.3441552},
{"school_id":"B000011809","school_name":"부산체육고등학교","school_classification":"고등학교","operational_status":"운영","office_of_edu_code":7150000,"office_of_edu_name":"부산광역시교육청","latitude":35.07205496,"longitude":129.064034},
{"school_id":"B000012178","school_name":"신명고등학교","school_classification":"고등학교","operational_status":"운영","office_of_edu_code":7240000,"office_of_edu_name":"대구광역시교육청","latitude":35.86838328,"longitude":128.584035},
{"school_id":"B000013379","school_name":"보광고등학교","school_classification":"고등학교","operational_status":"운영","office_of_edu_code":9010000,"office_of_edu_name":"경상남도교육청","latitude":35.4918218,"longitude":129.0873838},
{"school_id":"B000012112","school_name":"성모여자고등학교","school_classification":"고등학교","operational_status":"운영","office_of_edu_code":7150000,"office_of_edu_name":"부산광역시교육청","latitude":35.16726136,"longitude":129.072124},
{"school_id":"B000012414","school_name":"화봉고등학교","school_classification":"고등학교","operational_status":"운영","office_of_edu_code":7480000,"office_of_edu_name":"울산광역시교육청","latitude":35.59529953,"longitude":129.3700214},
{"school_id":"B000011373","school_name":"세정고등학교","school_classification":"고등학교","operational_status":"운영","office_of_edu_code":7150000,"office_of_edu_name":"부산광역시교육청","latitude":35.16997026,"longitude":129.0793616},
{"school_id":"B000013244","school_name":"진량고등학교","school_classification":"고등학교","operational_status":"운영","office_of_edu_code":8750000,"office_of_edu_name":"경상북도교육청","latitude":35.87727334,"longitude":128.8110155},
{"school_id":"B000013307","school_name":"창원고등학교","school_classification":"고등학교","operational_status":"운영","office_of_edu_code":9010000,"office_of_edu_name":"경상남도교육청","latitude":35.25528577,"longitude":128.6427051},
{"school_id":"B000013212","school_name":"금오여자고등학교","school_classification":"고등학교","operational_status":"운영","office_of_edu_code":8750000,"office_of_edu_name":"경상북도교육청","latitude":36.14245673,"longitude":128.3459186},
{"school_id":"B000012180","school_name":"정동고등학교","school_classification":"고등학교","operational_status":"운영","office_of_edu_code":7240000,"office_of_edu_name":"대구광역시교육청","latitude":35.87674854,"longitude":128.6928649},
{"school_id":"B000023104","school_name":"율곡고등학교","school_classification":"고등학교","operational_status":"운영","office_of_edu_code":8750000,"office_of_edu_name":"경상북도교육청","latitude":36.123512,"longitude":128.1918031},
{"school_id":"B000013499","school_name":"해운대고등학교","school_classification":"고등학교","operational_status":"운영","office_of_edu_code":7150000,"office_of_edu_name":"부산광역시교육청","latitude":35.1714876,"longitude":129.1624738},
{"school_id":"B000012117","school_name":"부산중앙여자고등학교","school_classification":"고등학교","operational_status":"운영","office_of_edu_code":7150000,"office_of_edu_name":"부산광역시교육청","latitude":35.2079666,"longitude":129.0796668},
{"school_id":"B000013263","school_name":"청도고등학교","school_classification":"고등학교","operational_status":"운영","office_of_edu_code":8750000,"office_of_edu_name":"경상북도교육청","latitude":35.64073632,"longitude":128.7479311},
{"school_id":"B000012160","school_name":"지산고등학교","school_classification":"고등학교","operational_status":"운영","office_of_edu_code":7150000,"office_of_edu_name":"부산광역시교육청","latitude":35.2433761,"longitude":129.098813},
{"school_id":"B000011466","school_name":"울산애니원고등학교","school_classification":"고등학교","operational_status":"운영","office_of_edu_code":7480000,"office_of_edu_name":"울산광역시교육청","latitude":35.57871758,"longitude":129.3211199},
{"school_id":"B000013352","school_name":"김해영운고등학교","school_classification":"고등학교","operational_status":"운영","office_of_edu_code":9010000,"office_of_edu_name":"경상남도교육청","latitude":35.25467462,"longitude":128.9057183},
{"school_id":"B000011905","school_name":"경북체육고등학교","school_classification":"고등학교","operational_status":"운영","office_of_edu_code":8750000,"office_of_edu_name":"경상북도교육청","latitude":35.81222619,"longitude":128.7380534},
{"school_id":"B000013495","school_name":"개성고등학교","school_classification":"고등학교","operational_status":"운영","office_of_edu_code":7150000,"office_of_edu_name":"부산광역시교육청","latitude":35.1676735,"longitude":129.0299526},
{"school_id":"B000012119","school_name":"용인고등학교","school_classification":"고등학교","operational_status":"운영","office_of_edu_code":7150000,"office_of_edu_name":"부산광역시교육청","latitude":35.21451237,"longitude":129.0949469},
{"school_id":"B000011411","school_name":"대구제일여자상업고등학교","school_classification":"고등학교","operational_status":"운영","office_of_edu_code":7240000,"office_of_edu_name":"대구광역시교육청","latitude":35.84075539,"longitude":128.545887},
{"school_id":"B000023278","school_name":"진양고등학교","school_classification":"고등학교","operational_status":"운영","office_of_edu_code":9010000,"office_of_edu_name":"경상남도교육청","latitude":35.1757894,"longitude":128.1525045},
{"school_id":"B000013316","school_name":"창원경일여자고등학교","school_classification":"고등학교","operational_status":"운영","office_of_edu_code":9010000,"office_of_edu_name":"경상남도교육청","latitude":35.22732278,"longitude":128.662447},
{"school_id":"B000023181","school_name":"김해수남고등학교","school_classification":"고등학교","operational_status":"운영","office_of_edu_code":9010000,"office_of_edu_name":"경상남도교육청","latitude":35.16822931,"longitude":128.8167315},
{"school_id":"B000012164","school_name":"부산대저고등학교","school_classification":"고등학교","operational_status":"운영","office_of_edu_code":7150000,"office_of_edu_name":"부산광역시교육청","latitude":35.17758668,"longitude":128.956294},
{"school_id":"B000013351","school_name":"김해삼방고등학교","school_classification":"고등학교","operational_status":"운영","office_of_edu_code":9010000,"office_of_edu_name":"경상남도교육청","latitude":35.25534178,"longitude":128.9030254},
{"school_id":"B000012110","school_name":"부산동성고등학교","school_classification":"고등학교","operational_status":"운영","office_of_edu_code":7150000,"office_of_edu_name":"부산광역시교육청","latitude":35.15151692,"longitude":129.0697793},
{"school_id":"B000011811","school_name":"부산국제고등학교","school_classification":"고등학교","operational_status":"운영","office_of_edu_code":7150000,"office_of_edu_name":"부산광역시교육청","latitude":35.16722627,"longitude":129.0234526},
{"school_id":"B000013356","school_name":"김해대청고등학교","school_classification":"고등학교","operational_status":"운영","office_of_edu_code":9010000,"office_of_edu_name":"경상남도교육청","latitude":35.18792102,"longitude":128.8005179},
{"school_id":"B000012139","school_name":"경혜여자고등학교","school_classification":"고등학교","operational_status":"운영","office_of_edu_code":7150000,"office_of_edu_name":"부산광역시교육청","latitude":35.20418761,"longitude":129.0105038},
{"school_id":"B000013383","school_name":"명덕고등학교","school_classification":"고등학교","operational_status":"운영","office_of_edu_code":9010000,"office_of_edu_name":"경상남도교육청","latitude":35.27250669,"longitude":128.4024888},
{"school_id":"B000013304","school_name":"진해용원고등학교","school_classification":"고등학교","operational_status":"운영","office_of_edu_code":9010000,"office_of_edu_name":"경상남도교육청","latitude":35.10145141,"longitude":128.8190397},
{"school_id":"B000013413","school_name":"서상고등학교","school_classification":"고등학교","operational_status":"운영","office_of_edu_code":9010000,"office_of_edu_name":"경상남도교육청","latitude":35.67710456,"longitude":127.6896788},
{"school_id":"B000013243","school_name":"하양여자고등학교","school_classification":"고등학교","operational_status":"운영","office_of_edu_code":8750000,"office_of_edu_name":"경상북도교육청","latitude":35.92967651,"longitude":128.826076},
{"school_id":"B000013362","school_name":"세종고등학교","school_classification":"고등학교","operational_status":"운영","office_of_edu_code":9010000,"office_of_edu_name":"경상남도교육청","latitude":35.47378054,"longitude":128.7637125},
{"school_id":"B000011469","school_name":"울산생활과학고등학교","school_classification":"고등학교","operational_status":"운영","office_of_edu_code":7480000,"office_of_edu_name":"울산광역시교육청","latitude":35.50423681,"longitude":129.4210107},
{"school_id":"B000012102","school_name":"부경고등학교","school_classification":"고등학교","operational_status":"운영","office_of_edu_code":7150000,"office_of_edu_name":"부산광역시교육청","latitude":35.1157788,"longitude":129.0133065},
{"school_id":"B000013577","school_name":"안동고등학교","school_classification":"고등학교","operational_status":"운영","office_of_edu_code":8750000,"office_of_edu_name":"경상북도교육청","latitude":36.54382299,"longitude":128.7600811},
{"school_id":"B000012173","school_name":"기장고등학교","school_classification":"고등학교","operational_status":"운영","office_of_edu_code":7150000,"office_of_edu_name":"부산광역시교육청","latitude":35.24015148,"longitude":129.2090256},
{"school_id":"B000012204","school_name":"오성고등학교","school_classification":"고등학교","operational_status":"운영","office_of_edu_code":7240000,"office_of_edu_name":"대구광역시교육청","latitude":35.85447266,"longitude":128.6447837},
{"school_id":"B000013318","school_name":"마산내서여자고등학교","school_classification":"고등학교","operational_status":"운영","office_of_edu_code":9010000,"office_of_edu_name":"경상남도교육청","latitude":35.23729062,"longitude":128.5028667},
{"school_id":"B000011392","school_name":"부산정보관광고등학교","school_classification":"고등학교","operational_status":"운영","office_of_edu_code":7150000,"office_of_edu_name":"부산광역시교육청","latitude":35.22394897,"longitude":129.0919103},
{"school_id":"B000011369","school_name":"부산진여자상업고등학교","school_classification":"고등학교","operational_status":"운영","office_of_edu_code":7150000,"office_of_edu_name":"부산광역시교육청","latitude":35.1701018,"longitude":129.0721827},
{"school_id":"B000013497","school_name":"부산중앙고등학교","school_classification":"고등학교","operational_status":"운영","office_of_edu_code":7150000,"office_of_edu_name":"부산광역시교육청","latitude":35.139866,"longitude":129.0786353},