[{"school_id":"B000011915","school_name":"제주과학고등학교","school_classification":"고등학교","operational_status":"운영","office_of_edu_code":9290000,"office_of_edu_name":"제주특별자치도교육청","latitude":33.42661999,"longitude":126.5314445},
{"school_id":"B000013437","school_name":"한림고등학교","school_classification":"고등학교","operational_status":"운영","office_of_edu_code":9290000,"office_of_edu_name":"제주특별자치도교육청","latitude":33.39775136,"longitude":126.2583198},
{"school_id":"B000013441","school_name":"삼성여자고등학교","school_classification":"고등학교","operational_status":"운영","office_of_edu_code":9290000,"office_of_edu_name":"제주특별자치도교육청","latitude":33.25435707,"longitude":126.5835744},
{"school_id":"B000011788","school_name":"중문고등학교","school_classification":"고등학교","operational_status":"운영","office_of_edu_code":9290000,"office_of_edu_name":"제주특별자치도교육청","latitude":33.25486483,"longitude":126.4468949},
{"school_id":"B000013434","school_name":"영주고등학교","school_classification":"고등학교","operational_status":"운영","office_of_edu_code":9290000,"office_of_edu_name":"제주특별자치도교육청","latitude":33.45478672,"longitude":126.5797642},
{"school_id":"B000013429","school_name":"오현고등학교","school_classification":"고등학교","operational_status":"운영","office_of_edu_code":9290000,"office_of_edu_name":"제주특별자치도교육청","latitude":33.51780188,"longitude":126.5564487},
{"school_id":"B000013431","school_name":"제주여자고등학교","school_classification":"고등학교","operational_status":"운영","office_of_edu_code":9290000,"office_of_edu_name":"제주특별자치도교육청","latitude":33.4833337,"longitude":126.5397621},
{"school_id":"B000011783","school_name":"제주고등학교","school_classification":"고등학교","operational_status":"운영","office_of_edu_code":9290000,"office_of_edu_name":"제주특별자치도교육청","latitude":33.47237342,"longitude":126.4816709},
{"school_id":"B000013439","school_name":"서귀포고등학교","school_classification":"고등학교","operational_status":"운영","office_of_edu_code":9290000,"office_of_edu_name":"제주특별자치도교육청","latitude":33.25701725,"longitude":126.563108},
{"school_id":"B000013435","school_name":"남녕고등학교","school_classification":"고등학교","operational_status":"운영","office_of_edu_code":9290000,"office_of_edu_name":"제주특별자치도교육청","latitude":33.49005684,"longitude":126.4819807},
{"school_id":"B000013428","school_name":"제주중앙여자고등학교","school_classification":"고등학교","operational_status":"운영","office_of_edu_code":9290000,"office_of_edu_name":"제주특별자치도교육청","latitude":33.49130755,"longitude":126.539486},
{"school_id":"B000011785","school_name":"함덕고등학교","school_classification":"고등학교","operational_status":"운영","office_of_edu_code":9290000,"office_of_edu_name":"제주특별자치도교육청","latitude":33.54458376,"longitude":126.6514373},
{"school_id":"B000013445","school_name":"표선고등학교","school_classification":"고등학교","operational_status":"운영","office_of_edu_code":9290000,"office_of_edu_name":"제주특별자치도교육청","latitude":33.33115727,"longitude":126.826996},
{"school_id":"B000013436","school_name":"애월고등학교","school_classification":"고등학교","operational_status":"운영","office_of_edu_code":9290000,"office_of_edu_name":"제주특별자치도교육청","latitude":33.4602189,"longitude":126.3333962},
{"school_id":"B000011786","school_name":"한국뷰티고등학교","school_classification":"고등학교","operational_status":"운영","office_of_edu_code":9290000,"office_of_edu_name":"제주특별자치도교육청","latitude":33.30007758,"longitude":126.181868},
{"school_id":"B000013444","school_name":"성산고등학교","school_classification":"고등학교","operational_status":"운영","office_of_edu_code":9290000,"office_of_edu_name":"제주특별자치도교육청","latitude":33.47020324,"longitude":126.9151667},
{"school_id":"B000027060","school_name":"NLCS JeJu","school_classification":"고등학교","operational_status":"운영","office_of_edu_code":9290000,"office_of_edu_name":"제주특별자치도교육청","latitude":33.29684267,"longitude":126.2918094},
{"school_id":"B000013438","school_name":"세화고등학교","school_classification":"고등학교","operational_status":"운영","office_of_edu_code":9290000,"office_of_edu_name":"제주특별자치도교육청","latitude":33.51619733,"longitude":126.862739},
{"school_id":"B000027064","school_name":"KIS High School","school_classification":"고등학교","operational_status":"운영","office_of_edu_code":9290000,"office_of_edu_name":"제주특별자치도교육청","latitude":33.28864617,"longitude":126.2872199},
{"school_id":"B000013433","school_name":"제주중앙고등학교","school_classification":"고등학교","operational_status":"운영","office_of_edu_code":9290000,"office_of_edu_name":"제주특별자치도교육청","latitude":33.47416984,"longitude":126.5733732},
{"school_id":"B000011782","school_name":"제주여자상업고등학교","school_classification":"고등학교","operational_status":"운영","office_of_edu_code":9290000,"office_of_edu_name":"제주특별자치도교육청","latitude":33.5146708,"longitude":126.536353},
{"school_id":"B000013443","school_name":"대정여자고등학교","school_classification":"고등학교","operational_status":"운영","office_of_edu_code":9290000,"office_of_edu_name":"제주특별자치도교육청","latitude":33.22918877,"longitude":126.2533142},
{"school_id":"B000013592","school_name":"서귀포여자고등학교","school_classification":"고등학교","operational_status":"운영","office_of_edu_code":9290000,"office_of_edu_name":"제주특별자치도교육청","latitude":33.24349575,"longitude":126.5307976},
{"school_id":"B000011916","school_name":"제주외국어고등학교","school_classification":"고등학교","operational_status":"운영","office_of_edu_code":9290000,"office_of_edu_name":"제주특별자치도교육청","latitude":33.43397575,"longitude":126.4259791},
{"school_id":"B000013430","school_name":"대기고등학교","school_classification":"고등학교","operational_status":"운영","office_of_edu_code":9290000,"office_of_edu_name":"제주특별자치도교육청","latitude":33.49250981,"longitude":126.5932794},
{"school_id":"B000013442","school_name":"대정고등학교","school_classification":"고등학교","operational_status":"운영","office_of_edu_code":9290000,"office_of_edu_name":"제주특별자치도교육청","latitude":33.2319256,"longitude":126.2595004},
{"school_id":"B000011784","school_name":"한림공업고등학교","school_classification":"고등학교","operational_status":"운영","office_of_edu_code":9290000,"office_of_edu_name":"제주특별자치도교육청","latitude":33.40652604,"longitude":126.2699123},
{"school_id":"B000013427","school_name":"제주제일고등학교","school_classification":"고등학교","operational_status":"운영","office_of_edu_code":9290000,"office_of_edu_name":"제주특별자치도교육청","latitude":33.48002958,"longitude":126.4807053},
{"school_id":"B000011787","school_name":"서귀포산업과학고등학교","school_classification":"고등학교","operational_status":"운영","office_of_edu_code":9290000,"office_of_edu_name":"제주특별자치도교육청","latitude":33.29764586,"longitude":126.5947672},
{"school_id":"B000013440","school_name":"남주고등학교","school_classification":"고등학교","operational_status":"운영","office_of_edu_code":9290000,"office_of_edu_name":"제주특별자치도교육청","latitude":33.27652166,"longitude":126.5649677},
{"school_id":"B000027297","school_name":"세인트존스베리 아카데미 제주","school_classification":"고등학교","operational_status":"운영","office_of_edu_code":9290000,"office_of_edu_name":"제주특별자치도교육청","latitude":33.28529333,"longitude":126.2843128},
{"school_id":"B000013426","school_name":"제주대학교사범대학부설고등학교","school_classification":"고등학교","operational_status":"운영","office_of_edu_code":9290000,"office_of_edu_name":"제주특별자치도교육청","latitude":33.5137853,"longitude":126.5102401},
{"school_id":"B000027088","school_name":"Branksome Hall Asia","school_classification":"고등학교","operational_status":"운영","office_of_edu_code":9290000,"office_of_edu_name":"제주특별자치도교육청","latitude":33.28997179,"longitude":126.2872649},
{"school_id":"B000013432","school_name":"신성여자고등학교","school_classification":"고등학교","operational_status":"운영","office_of_edu_code":9290000,"office_of_edu_name":"제주특별자치도교육청","latitude":33.47698922,"longitude":126.5640675}]