[{"school_id":"B000011838","school_name":"광주자동화설비공업고등학교","school_classification":"고등학교","operational_status":"운영","office_of_edu_code":7380000,"office_of_edu_name":"광주광역시교육청","latitude":35.15002094,"longitude":126.8140921},
{"school_id":"B000013530","school_name":"보문고등학교","school_classification":"고등학교","operational_status":"운영","office_of_edu_code":7380000,"office_of_edu_name":"광주광역시교육청","latitude":35.15386307,"longitude":126.7768705},
{"school_id":"B000011664","school_name":"나주상업고등학교","school_classification":"고등학교","operational_status":"운영","office_of_edu_code":8490000,"office_of_edu_name":"전라남도교육청","latitude":35.04269594,"longitude":126.722411},
{"school_id":"B000013527","school_name":"상일여자고등학교","school_classification":"고등학교","operational_status":"운영","office_of_edu_code":7380000,"office_of_edu_name":"광주광역시교육청","latitude":35.15878307,"longitude":126.8644416},
{"school_id":"B000022899","school_name":"마사고등학교실습지","school_classification":"고등학교","operational_status":"운영","office_of_edu_code":8320000,"office_of_edu_name":"전라북도교육청","latitude":35.70108474,"longitude":127.5112784},
{"school_id":"B000011667","school_name":"호남원예고등학교","school_classification":"고등학교","operational_status":"운영","office_of_edu_code":8490000,"office_of_edu_name":"전라남도교육청","latitude":35.03822307,"longitude":126.751088},
{"school_id":"B000011659","school_name":"여수해양과학고등학교","school_classification":"고등학교","operational_status":"운영","office_of_edu_code":8490000,"office_of_edu_name":"전라남도교육청","latitude":34.61413689,"longitude":127.727},
{"school_id":"B000013071","school_name":"영흥고등학교","school_classification":"고등학교","operational_status":"운영","office_of_edu_code":8490000,"office_of_edu_name":"전라남도교육청","latitude":34.80525243,"longitude":126.416556},
{"school_id":"B000012319","school_name":"광주인성고등학교","school_classification":"고등학교","operational_status":"운영","office_of_edu_code":7380000,"office_of_edu_name":"광주광역시교육청","latitude":35.1028351,"longitude":126.8813301},
{"school_id":"B000013089","school_name":"순천효천고등학교","school_classification":"고등학교","operational_status":"운영","office_of_edu_code":8490000,"office_of_edu_name":"전라남도교육청","latitude":34.90505459,"longitude":127.4844121},
{"school_id":"B000011447","school_name":"광주공업고등학교","school_classification":"고등학교","operational_status":"운영","office_of_edu_code":7380000,"office_of_edu_name":"광주광역시교육청","latitude":35.189132,"longitude":126.8951358},
{"school_id":"B000013117","school_name":"예당고등학교","school_classification":"고등학교","operational_status":"운영","office_of_edu_code":8490000,"office_of_edu_name":"전라남도교육청","latitude":34.78058113,"longitude":127.1993808},
{"school_id":"B000011665","school_name":"전남미용고등학교","school_classification":"고등학교","operational_status":"운영","office_of_edu_code":8490000,"office_of_edu_name":"전라남도교육청","latitude":34.9985773,"longitude":126.7120248},
{"school_id":"B000013109","school_name":"고흥영주고등학교","school_classification":"고등학교","operational_status":"운영","office_of_edu_code":8490000,"office_of_edu_name":"전라남도교육청","latitude":34.68208974,"longitude":127.3560548},
{"school_id":"B000011897","school_name":"전남예술고등학교","school_classification":"고등학교","operational_status":"운영","office_of_edu_code":8490000,"office_of_edu_name":"전라남도교육청","latitude":34.84699033,"longitude":126.4316104},
{"school_id":"B000013114","school_name":"벌교여자고등학교","school_classification":"고등학교","operational_status":"운영","office_of_edu_code":8490000,"office_of_edu_name":"전라남도교육청","latitude":34.83509041,"longitude":127.3411374},
{"school_id":"B000013073","school_name":"여수여자고등학교","school_classification":"고등학교","operational_status":"운영","office_of_edu_code":8490000,"office_of_edu_name":"전라남도교육청","latitude":34.74145865,"longitude":127.7458079},
{"school_id":"B000013119","school_name":"화순고등학교","school_classification":"고등학교","operational_status":"운영","office_of_edu_code":8490000,"office_of_edu_name":"전라남도교육청","latitude":35.05376082,"longitude":126.9835194},
{"school_id":"B000012984","school_name":"전주성심여자고등학교","school_classification":"고등학교","operational_status":"운영","office_of_edu_code":8320000,"office_of_edu_name":"전라북도교육청","latitude":35.81195132,"longitude":127.150661},
{"school_id":"B000013147","school_name":"고금고등학교","school_classification":"고등학교","operational_status":"운영","office_of_edu_code":8490000,"office_of_edu_name":"전라남도교육청","latitude":34.40087252,"longitude":126.8046164},
{"school_id":"B000013101","school_name":"광양고등학교","school_classification":"고등학교","operational_status":"운영","office_of_edu_code":8490000,"office_of_edu_name":"전라남도교육청","latitude":34.9836527,"longitude":127.5726584},
{"school_id":"B000013030","school_name":"덕암고등학교","school_classification":"고등학교","operational_status":"운영","office_of_edu_code":8320000,"office_of_edu_name":"전라북도교육청","latitude":35.81309241,"longitude":126.8870829},
{"school_id":"B000012978","school_name":"전주해성고등학교","school_classification":"고등학교","operational_status":"운영","office_of_edu_code":8320000,"office_of_edu_name":"전라북도교육청","latitude":35.7867645,"longitude":127.1008413},
{"school_id":"B000013098","school_name":"광양백운고등학교","school_classification":"고등학교","operational_status":"운영","office_of_edu_code":8490000,"office_of_edu_name":"전라남도교육청","latitude":34.94677513,"longitude":127.6911143},
{"school_id":"B000013106","school_name":"구례고등학교","school_classification":"고등학교","operational_status":"운영","office_of_edu_code":8490000,"office_of_edu_name":"전라남도교육청","latitude":35.20383015,"longitude":127.4627329},
{"school_id":"B000011643","school_name":"한국한방고등학교","school_classification":"고등학교","operational_status":"운영","office_of_edu_code":8320000,"office_of_edu_name":"전라북도교육청","latitude":35.7707089,"longitude":127.3774507},
{"school_id":"B000013572","school_name":"나주고등학교","school_classification":"고등학교","operational_status":"운영","office_of_edu_code":8490000,"office_of_edu_name":"전라남도교육청","latitude":35.03080035,"longitude":126.7108432},
{"school_id":"B000013110","school_name":"고흥도화고등학교","school_classification":"고등학교","operational_status":"운영","office_of_edu_code":8490000,"office_of_edu_name":"전라남도교육청","latitude":34.51405905,"longitude":127.3204303},
{"school_id":"B000013566","school_name":"군산중앙고등학교","school_classification":"고등학교","operational_status":"운영","office_of_edu_code":8320000,"office_of_edu_name":"전라북도교육청","latitude":36.00197655,"longitude":126.7849803},
{"school_id":"B000012312","school_name":"광주여자고등학교","school_classification":"고등학교","operational_status":"운영","office_of_edu_code":7380000,"office_of_edu_name":"광주광역시교육청","latitude":35.14818775,"longitude":126.8731839},
{"school_id":"B000013078","school_name":"여수정보과학고등학교","school_classification":"고등학교","operational_status":"운영","office_of_edu_code":8490000,"office_of_edu_name":"전라남도교육청","latitude":34.75249359,"longitude":127.6983989},
{"school_id":"B000013087","school_name":"순천매산여자고등학교","school_classification":"고등학교","operational_status":"운영","office_of_edu_code":8490000,"office_of_edu_name":"전라남도교육청","latitude":34.95868582,"longitude":127.4813152},
{"school_id":"B000013093","school_name":"영산고등학교","school_classification":"고등학교","operational_status":"운영","office_of_edu_code":8490000,"office_of_edu_name":"전라남도교육청","latitude":35.00894093,"longitude":126.7139419},
{"school_id":"B000011679","school_name":"정남진산업고등학교","school_classification":"고등학교","operational_status":"운영","office_of_edu_code":8490000,"office_of_edu_name":"전라남도교육청","latitude":34.68789365,"longitude":126.9009493},
{"school_id":"B000013150","school_name":"진도고등학교","school_classification":"고등학교","operational_status":"운영","office_of_edu_code":8490000,"office_of_edu_name":"전라남도교육청","latitude":34.4882597,"longitude":126.2767812},
{"school_id":"B000013097","school_name":"중마고등학교","school_classification":"고등학교","operational_status":"운영","office_of_edu_code":8490000,"office_of_edu_name":"전라남도교육청","latitude":34.95321145,"longitude":127.6976714},
{"school_id":"B000013146","school_name":"노화고등학교","school_classification":"고등학교","operational_status":"운영","office_of_edu_code":8490000,"office_of_edu_name":"전라남도교육청","latitude":34.18136143,"longitude":126.5776943},
{"school_id":"B000011690","school_name":"전남보건고등학교","school_classification":"고등학교","operational_status":"운영","office_of_edu_code":8490000,"office_of_edu_name":"전라남도교육청","latitude":35.188563,"longitude":126.624301},
{"school_id":"B000011452","school_name":"광주전자공업고등학교","school_classification":"고등학교","operational_status":"운영","office_of_edu_code":7380000,"office_of_edu_name":"광주광역시교육청","latitude":35.20485605,"longitude":126.8407681},
{"school_id":"B000011672","school_name":"전남조리과학고등학교","school_classification":"고등학교","operational_status":"운영","office_of_edu_code":8490000,"office_of_edu_name":"전라남도교육청","latitude":35.28257899,"longitude":127.2871456},
{"school_id":"B000011662","school_name":"순천효산고등학교","school_classification":"고등학교","operational_status":"운영","office_of_edu_code":8490000,"office_of_edu_name":"전라남도교육청","latitude":34.97321267,"longitude":127.4954825},
{"school_id":"B000011687","school_name":"구림공업고등학교","school_classification":"고등학교","operational_status":"운영","office_of_edu_code":8490000,"office_of_edu_name":"전라남도교육청","latitude":34.75989027,"longitude":126.6263371},
{"school_id":"B000013082","school_name":"순천여자고등학교","school_classification":"고등학교","operational_status":"운영","office_of_edu_code":8490000,"office_of_edu_name":"전라남도교육청","latitude":34.94777692,"longitude":127.4831409},
{"school_id":"B000013053","school_name":"고창고등학교","school_classification":"고등학교","operational_status":"운영","office_of_edu_code":8320000,"office_of_edu_name":"전라북도교육청","latitude":35.43744052,"longitude":126.7012704},
{"school_id":"B000011655","school_name":"목포성신고등학교","school_classification":"고등학교","operational_status":"운영","office_of_edu_code":8490000,"office_of_edu_name":"전라남도교육청","latitude":34.81645959,"longitude":126.4097016},
{"school_id":"B000013043","school_name":"무풍고등학교","school_classification":"고등학교","operational_status":"운영","office_of_edu_code":8320000,"office_of_edu_name":"전라북도교육청","latitude":35.96676372,"longitude":127.8464687},
{"school_id":"B000011683","school_name":"해남공업고등학교","school_classification":"고등학교","operational_status":"운영","office_of_edu_code":8490000,"office_of_edu_name":"전라남도교육청","latitude":34.57266047,"longitude":126.5929698},
{"school_id":"B000013103","school_name":"창평고등학교","school_classification":"고등학교","operational_status":"운영","office_of_edu_code":8490000,"office_of_edu_name":"전라남도교육청","latitude":35.2384786,"longitude":127.0123953},
{"school_id":"B000011660","school_name":"순천공업고등학교","school_classification":"고등학교","operational_status":"운영","office_of_edu_code":8490000,"office_of_edu_name":"전라남도교육청","latitude":34.95557109,"longitude":127.5167914},
{"school_id":"B000012310","school_name":"살레시오여자고등학교","school_classification":"고등학교","operational_status":"운영","office_of_edu_code":7380000,"office_of_edu_name":"광주광역시교육청","latitude":35.1469746,"longitude":126.9298381},
{"school_id":"B000011686","school_name":"영암전자과학고등학교","school_classification":"고등학교","operational_status":"운영","office_of_edu_code":8490000,"office_of_edu_name":"전라남도교육청","latitude":34.88322061,"longitude":126.6907254},
{"school_id":"B000011889","school_name":"전북기계공업고등학교","school_classification":"고등학교","operational_status":"운영","office_of_edu_code":8320000,"office_of_edu_name":"전라북도교육청","latitude":35.94795211,"longitude":126.9617606},
{"school_id":"B000013034","school_name":"동국대학교사범대학부속금산고등학교","school_classification":"고등학교","operational_status":"운영","office_of_edu_code":8320000,"office_of_edu_name":"전라북도교육청","latitude":35.7177326,"longitude":126.9994481},
{"school_id":"B000013000","school_name":"이리고등학교","school_classification":"고등학교","operational_status":"운영","office_of_edu_code":8320000,"office_of_edu_name":"전라북도교육청","latitude":35.94925081,"longitude":126.9557741},
{"school_id":"B000013125","school_name":"성전고등학교","school_classification":"고등학교","operational_status":"운영","office_of_edu_code":8490000,"office_of_edu_name":"전라남도교육청","latitude":34.69371745,"longitude":126.7064011},
{"school_id":"B000011638","school_name":"지평선고등학교","school_classification":"고등학교","operational_status":"운영","office_of_edu_code":8320000,"office_of_edu_name":"전라북도교육청","latitude":35.82821233,"longitude":126.8312524},
{"school_id":"B000012318","school_name":"광주동성고등학교","school_classification":"고등학교","operational_status":"운영","office_of_edu_code":7380000,"office_of_edu_name":"광주광역시교육청","latitude":35.11548253,"longitude":126.8935344},
{"school_id":"B000011622","school_name":"한국전통문화고등학교","school_classification":"고등학교","operational_status":"운영","office_of_edu_code":8320000,"office_of_edu_name":"전라북도교육청","latitude":35.77240766,"longitude":127.0978656},
{"school_id":"B000013133","school_name":"백제고등학교","school_classification":"고등학교","operational_status":"운영","office_of_edu_code":8490000,"office_of_edu_name":"전라남도교육청","latitude":34.98248636,"longitude":126.4734979},
{"school_id":"B000013085","school_name":"순천매산고등학교","school_classification":"고등학교","operational_status":"운영","office_of_edu_code":8490000,"office_of_edu_name":"전라남도교육청","latitude":34.95746444,"longitude":127.4804446},
{"school_id":"B000011445","school_name":"송원여자상업고등학교","school_classification":"고등학교","operational_status":"운영","office_of_edu_code":7380000,"office_of_edu_name":"광주광역시교육청","latitude":35.10818451,"longitude":126.8732664},
{"school_id":"B000013094","school_name":"광남고등학교","school_classification":"고등학교","operational_status":"운영","office_of_edu_code":8490000,"office_of_edu_name":"전라남도교육청","latitude":35.038587,"longitude":126.8442532},
{"school_id":"B000013129","school_name":"영암고등학교","school_classification":"고등학교","operational_status":"운영","office_of_edu_code":8490000,"office_of_edu_name":"전라남도교육청","latitude":34.79909753,"longitude":126.686741},
{"school_id":"B000013092","school_name":"금성고등학교","school_classification":"고등학교","operational_status":"운영","office_of_edu_code":8490000,"office_of_edu_name":"전라남도교육청","latitude":35.0380384,"longitude":126.712291},
{"school_id":"B000013574","school_name":"남악고등학교","school_classification":"고등학교","operational_status":"운영","office_of_edu_code":8490000,"office_of_edu_name":"전라남도교육청","latitude":34.81042932,"longitude":126.4685602},
{"school_id":"B000013001","school_name":"이리여자고등학교","school_classification":"고등학교","operational_status":"운영","office_of_edu_code":8320000,"office_of_edu_name":"전라북도교육청","latitude":35.94486815,"longitude":126.9513174},
{"school_id":"B000011895","school_name":"한국항만물류고등학교","school_classification":"고등학교","operational_status":"운영","office_of_edu_code":8490000,"office_of_edu_name":"전라남도교육청","latitude":35.01702381,"longitude":127.7165243},
{"school_id":"B000011666","school_name":"나주공업고등학교","school_classification":"고등학교","operational_status":"운영","office_of_edu_code":8490000,"office_of_edu_name":"전라남도교육청","latitude":35.03980492,"longitude":126.7127511},
{"school_id":"B000013068","school_name":"목포정명여자고등학교","school_classification":"고등학교","operational_status":"운영","office_of_edu_code":8490000,"office_of_edu_name":"전라남도교육청","latitude":34.79640482,"longitude":126.3831138},
{"school_id":"B000013062","school_name":"목포여자고등학교","school_classification":"고등학교","operational_status":"운영","office_of_edu_code":8490000,"office_of_edu_name":"전라남도교육청","latitude":34.79788027,"longitude":126.3852423},
{"school_id":"B000012321","school_name":"광주석산고등학교","school_classification":"고등학교","operational_status":"운영","office_of_edu_code":7380000,"office_of_edu_name":"광주광역시교육청","latitude":35.13957721,"longitude":126.9083662},
{"school_id":"B000013048","school_name":"한국마사고등학교","school_classification":"고등학교","operational_status":"운영","office_of_edu_code":8320000,"office_of_edu_name":"전라북도교육청","latitude":35.72425456,"longitude":127.6344655},
{"school_id":"B000013009","school_name":"함열여자고등학교","school_classification":"고등학교","operational_status":"운영","office_of_edu_code":8320000,"office_of_edu_name":"전라북도교육청","latitude":36.08295724,"longitude":126.9690849},
{"school_id":"B000012974","school_name":"전주솔내고등학교","school_classification":"고등학교","operational_status":"운영","office_of_edu_code":8320000,"office_of_edu_name":"전라북도교육청","latitude":35.86301323,"longitude":127.1225064},
{"school_id":"B000011669","school_name":"담양공업고등학교","school_classification":"고등학교","operational_status":"운영","office_of_edu_code":8490000,"office_of_edu_name":"전라남도교육청","latitude":35.30241167,"longitude":126.9822366},
{"school_id":"B000013064","school_name":"목상고등학교","school_classification":"고등학교","operational_status":"운영","office_of_edu_code":8490000,"office_of_edu_name":"전라남도교육청","latitude":34.80571314,"longitude":126.3949956},
{"school_id":"B000012335","school_name":"고려고등학교","school_classification":"고등학교","operational_status":"운영","office_of_edu_code":7380000,"office_of_edu_name":"광주광역시교육청","latitude":35.19253901,"longitude":126.8982854},
{"school_id":"B000012324","school_name":"서진여자고등학교","school_classification":"고등학교","operational_status":"운영","office_of_edu_code":7380000,"office_of_edu_name":"광주광역시교육청","latitude":35.12555976,"longitude":126.8999456},
{"school_id":"B000011453","school_name":"전남공업고등학교","school_classification":"고등학교","operational_status":"운영","office_of_edu_code":7380000,"office_of_edu_name":"광주광역시교육청","latitude":35.1935726,"longitude":126.8431138},
{"school_id":"B000023275","school_name":"순천팔마고등학교","school_classification":"고등학교","operational_status":"운영","office_of_edu_code":8490000,"office_of_edu_name":"전라남도교육청","latitude":34.9747943,"longitude":127.4979343},
{"school_id":"B000013040","school_name":"마령고등학교","school_classification":"고등학교","operational_status":"운영","office_of_edu_code":8320000,"office_of_edu_name":"전라북도교육청","latitude":35.7322463,"longitude":127.3721322},
{"school_id":"B000012987","school_name":"전주대학교사범대학부설고등학교","school_classification":"고등학교","operational_status":"운영","office_of_edu_code":8320000,"office_of_edu_name":"전라북도교육청","latitude":35.81531188,"longitude":127.0938165},
{"school_id":"B000011699","school_name":"진도실업고등학교","school_classification":"고등학교","operational_status":"운영","office_of_edu_code":8490000,"office_of_edu_name":"전라남도교육청","latitude":34.48303174,"longitude":126.2600368},
{"school_id":"B000013100","school_name":"광양여자고등학교","school_classification":"고등학교","operational_status":"운영","office_of_edu_code":8490000,"office_of_edu_name":"전라남도교육청","latitude":34.97649691,"longitude":127.5804126},
{"school_id":"B000013148","school_name":"약산고등학교","school_classification":"고등학교","operational_status":"운영","office_of_edu_code":8490000,"office_of_edu_name":"전라남도교육청","latitude":34.39213844,"longitude":126.8996588},
{"school_id":"B000013115","school_name":"벌교고등학교","school_classification":"고등학교","operational_status":"운영","office_of_edu_code":8490000,"office_of_edu_name":"전라남도교육청","latitude":34.8333152,"longitude":127.3422901},
{"school_id":"B000011640","school_name":"세인고등학교","school_classification":"고등학교","operational_status":"운영","office_of_edu_code":8320000,"office_of_edu_name":"전라북도교육청","latitude":36.06863841,"longitude":127.153994},
{"school_id":"B000013113","school_name":"보성고등학교","school_classification":"고등학교","operational_status":"운영","office_of_edu_code":8490000,"office_of_edu_name":"전라남도교육청","latitude":34.77571293,"longitude":127.0942137},
{"school_id":"B000013132","school_name":"영암낭주고등학교","school_classification":"고등학교","operational_status":"운영","office_of_edu_code":8490000,"office_of_edu_name":"전라남도교육청","latitude":34.72974846,"longitude":126.5634162},
{"school_id":"B000013127","school_name":"송지고등학교","school_classification":"고등학교","operational_status":"운영","office_of_edu_code":8490000,"office_of_edu_name":"전라남도교육청","latitude":34.38449027,"longitude":126.5157373},
{"school_id":"B000011893","school_name":"전남외국어고등학교","school_classification":"고등학교","operational_status":"운영","office_of_edu_code":8490000,"office_of_edu_name":"전라남도교육청","latitude":34.99437053,"longitude":126.7227378},
{"school_id":"B000012342","school_name":"서강고등학교","school_classification":"고등학교","operational_status":"운영","office_of_edu_code":7380000,"office_of_edu_name":"광주광역시교육청","latitude":35.17517965,"longitude":126.8680368},
{"school_id":"B000012316","school_name":"광주서석고등학교","school_classification":"고등학교","operational_status":"운영","office_of_edu_code":7380000,"office_of_edu_name":"광주광역시교육청","latitude":35.14925067,"longitude":126.881315},
{"school_id":"B000013123","school_name":"강진고등학교","school_classification":"고등학교","operational_status":"운영","office_of_edu_code":8490000,"office_of_edu_name":"전라남도교육청","latitude":34.63782109,"longitude":126.7585876},
{"school_id":"B000011628","school_name":"이리공업고등학교","school_classification":"고등학교","operational_status":"운영","office_of_edu_code":8320000,"office_of_edu_name":"전라북도교육청","latitude":35.9542133,"longitude":126.9533587},
{"school_id":"B000011696","school_name":"장성하이텍고등학교","school_classification":"고등학교","operational_status":"운영","office_of_edu_code":8490000,"office_of_edu_name":"전라남도교육청","latitude":35.30771586,"longitude":126.7932086},
{"school_id":"B000013003","school_name":"원광여자고등학교","school_classification":"고등학교","operational_status":"운영","office_of_edu_code":8320000,"office_of_edu_name":"전라북도교육청","latitude":35.95432998,"longitude":126.9434322},
{"school_id":"B000011681","school_name":"전남생명과학고등학교","school_classification":"고등학교","operational_status":"운영","office_of_edu_code":8490000,"office_of_edu_name":"전라남도교육청","latitude":34.64770421,"longitude":126.7769617},
{"school_id":"B000013142","school_name":"문향고등학교","school_classification":"고등학교","operational_status":"운영","office_of_edu_code":8490000,"office_of_edu_name":"전라남도교육청","latitude":35.3034175,"longitude":126.7680095},
{"school_id":"B000013076","school_name":"한영고등학교","school_classification":"고등학교","operational_status":"운영","office_of_edu_code":8490000,"office_of_edu_name":"전라남도교육청","latitude":34.75371344,"longitude":127.714897},
{"school_id":"B000013079","school_name":"여수화양고등학교","school_classification":"고등학교","operational_status":"운영","office_of_edu_code":8490000,"office_of_edu_name":"전라남도교육청","latitude":34.6891898,"longitude":127.5986936},
{"school_id":"B000013528","school_name":"송원고등학교","school_classification":"고등학교","operational_status":"운영","office_of_edu_code":7380000,"office_of_edu_name":"광주광역시교육청","latitude":35.10818451,"longitude":126.8732664},
{"school_id":"B000013057","school_name":"영선고등학교","school_classification":"고등학교","operational_status":"운영","office_of_edu_code":8320000,"office_of_edu_name":"전라북도교육청","latitude":35.41422378,"longitude":126.5580061},
{"school_id":"B000013531","school_name":"숭덕고등학교","school_classification":"고등학교","operational_status":"운영","office_of_edu_code":7380000,"office_of_edu_name":"광주광역시교육청","latitude":35.21450644,"longitude":126.8393251},
{"school_id":"B000013104","school_name":"곡성고등학교","school_classification":"고등학교","operational_status":"운영","office_of_edu_code":8490000,"office_of_edu_name":"전라남도교육청","latitude":35.28511237,"longitude":127.2923427},
{"school_id":"B000011673","school_name":"전남자연과학고등학교","school_classification":"고등학교","operational_status":"운영","office_of_edu_code":8490000,"office_of_edu_name":"전라남도교육청","latitude":35.19995065,"longitude":127.4631172},
{"school_id":"B000011635","school_name":"한국경마축산고등학교","school_classification":"고등학교","operational_status":"운영","office_of_edu_code":8320000,"office_of_edu_name":"전라북도교육청","latitude":35.4408014,"longitude":127.5161913},
{"school_id":"B000013060","school_name":"백산고등학교","school_classification":"고등학교","operational_status":"운영","office_of_edu_code":8320000,"office_of_edu_name":"전라북도교육청","latitude":35.70808449,"longitude":126.7910026},
{"school_id":"B000011680","school_name":"한국말산업고등학교","school_classification":"고등학교","operational_status":"운영","office_of_edu_code":8490000,"office_of_edu_name":"전라남도교육청","latitude":34.49694448,"longitude":126.8839438},
{"school_id":"B000011670","school_name":"한빛고등학교","school_classification":"고등학교","operational_status":"운영","office_of_edu_code":8490000,"office_of_edu_name":"전라남도교육청","latitude":35.29153056,"longitude":126.9131364},
{"school_id":"B000013158","school_name":"하의고등학교","school_classification":"고등학교","operational_status":"운영","office_of_edu_code":8490000,"office_of_edu_name":"전라남도교육청","latitude":34.60603857,"longitude":126.0371142},
{"school_id":"B000013143","school_name":"장성고등학교","school_classification":"고등학교","operational_status":"운영","office_of_edu_code":8490000,"office_of_edu_name":"전라남도교육청","latitude":35.30934389,"longitude":126.7981925},
{"school_id":"B000012331","school_name":"전남대학교사범대학부설고등학교","school_classification":"고등학교","operational_status":"운영","office_of_edu_code":7380000,"office_of_edu_name":"광주광역시교육청","latitude":35.1729465,"longitude":126.9011018},
{"school_id":"B000013128","school_name":"화원고등학교","school_classification":"고등학교","operational_status":"운영","office_of_edu_code":8490000,"office_of_edu_name":"전라남도교육청","latitude":34.67092845,"longitude":126.3229609},
{"school_id":"B000011697","school_name":"삼계고등학교","school_classification":"고등학교","operational_status":"운영","office_of_edu_code":8490000,"office_of_edu_name":"전라남도교육청","latitude":35.2584815,"longitude":126.6654827},
{"school_id":"B000023286","school_name":"화순이양고등학교","school_classification":"고등학교","operational_status":"운영","office_of_edu_code":8490000,"office_of_edu_name":"전라남도교육청","latitude":34.88670179,"longitude":126.9920316},
{"school_id":"B000011682","school_name":"병영상업고등학교","school_classification":"고등학교","operational_status":"운영","office_of_edu_code":8490000,"office_of_edu_name":"전라남도교육청","latitude":34.71314245,"longitude":126.8136156},
{"school_id":"B000011678","school_name":"전남기술과학고등학교","school_classification":"고등학교","operational_status":"운영","office_of_edu_code":8490000,"office_of_edu_name":"전라남도교육청","latitude":35.07198494,"longitude":126.9919092},
{"school_id":"B000011653","school_name":"목포여자상업고등학교","school_classification":"고등학교","operational_status":"운영","office_of_edu_code":8490000,"office_of_edu_name":"전라남도교육청","latitude":34.80787958,"longitude":126.4098144},
{"school_id":"B000011629","school_name":"진경여자고등학교","school_classification":"고등학교","operational_status":"운영","office_of_edu_code":8320000,"office_of_edu_name":"전라북도교육청","latitude":36.00504357,"longitude":126.9408324},
{"school_id":"B000013005","school_name":"이일여자고등학교","school_classification":"고등학교","operational_status":"운영","office_of_edu_code":8320000,"office_of_edu_name":"전라북도교육청","latitude":35.93458743,"longitude":126.9489825},
{"school_id":"B000011644","school_name":"푸른꿈고등학교","school_classification":"고등학교","operational_status":"운영","office_of_edu_code":8320000,"office_of_edu_name":"전라북도교육청","latitude":35.8643306,"longitude":127.6186346},
{"school_id":"B000011448","school_name":"광주자연과학고등학교","school_classification":"고등학교","operational_status":"운영","office_of_edu_code":7380000,"office_of_edu_name":"광주광역시교육청","latitude":35.19084274,"longitude":126.9154959},
{"school_id":"B000011671","school_name":"한울고등학교","school_classification":"고등학교","operational_status":"운영","office_of_edu_code":8490000,"office_of_edu_name":"전라남도교육청","latitude":35.11735857,"longitude":127.2980952},
{"school_id":"B000013052","school_name":"동계고등학교","school_classification":"고등학교","operational_status":"운영","office_of_edu_code":8320000,"office_of_edu_name":"전라북도교육청","latitude":35.45004832,"longitude":127.240649},
{"school_id":"B000011894","school_name":"전남과학고등학교","school_classification":"고등학교","operational_status":"운영","office_of_edu_code":8490000,"office_of_edu_name":"전라남도교육청","latitude":35.03306834,"longitude":126.7590628},
{"school_id":"B000013570","school_name":"여수고등학교","school_classification":"고등학교","operational_status":"운영","office_of_edu_code":8490000,"office_of_edu_name":"전라남도교육청","latitude":34.74635818,"longitude":127.7453949},
{"school_id":"B000013157","school_name":"도초고등학교","school_classification":"고등학교","operational_status":"운영","office_of_edu_code":8490000,"office_of_edu_name":"전라남도교육청","latitude":34.7044768,"longitude":125.951752},
{"school_id":"B000013151","school_name":"조도고등학교","school_classification":"고등학교","operational_status":"운영","office_of_edu_code":8490000,"office_of_edu_name":"전라남도교육청","latitude":34.31155214,"longitude":126.0432459},
{"school_id":"B000013070","school_name":"문태고등학교","school_classification":"고등학교","operational_status":"운영","office_of_edu_code":8490000,"office_of_edu_name":"전라남도교육청","latitude":34.80057558,"longitude":126.4030507},
{"school_id":"B000013026","school_name":"남원국악예술고등학교","school_classification":"고등학교","operational_status":"운영","office_of_edu_code":8320000,"office_of_edu_name":"전라북도교육청","latitude":35.42595135,"longitude":127.4055555},
{"school_id":"B000013121","school_name":"장흥고등학교","school_classification":"고등학교","operational_status":"운영","office_of_edu_code":8490000,"office_of_edu_name":"전라남도교육청","latitude":34.67993932,"longitude":126.9161181},
{"school_id":"B000013002","school_name":"원광고등학교","school_classification":"고등학교","operational_status":"운영","office_of_edu_code":8320000,"office_of_edu_name":"전라북도교육청","latitude":35.97322975,"longitude":127.0022827},
{"school_id":"B000013154","school_name":"임자고등학교","school_classification":"고등학교","operational_status":"운영","office_of_edu_code":8490000,"office_of_edu_name":"전라남도교육청","latitude":35.0904948,"longitude":126.0997368},
{"school_id":"B000011645","school_name":"전북유니텍고등학교","school_classification":"고등학교","operational_status":"운영","office_of_edu_code":8320000,"office_of_edu_name":"전라북도교육청","latitude":35.73290982,"longitude":127.5819498},
{"school_id":"B000013023","school_name":"남원여자고등학교","school_classification":"고등학교","operational_status":"운영","office_of_edu_code":8320000,"office_of_edu_name":"전라북도교육청","latitude":35.41117242,"longitude":127.3704283},
{"school_id":"B000013020","school_name":"인상고등학교","school_classification":"고등학교","operational_status":"운영","office_of_edu_code":8320000,"office_of_edu_name":"전라북도교육청","latitude":35.71787771,"longitude":126.8392028},
{"school_id":"B000012971","school_name":"전북대학교사범대학부설고등학교","school_classification":"고등학교","operational_status":"운영","office_of_edu_code":8320000,"office_of_edu_name":"전라북도교육청","latitude":35.8411407,"longitude":127.13159},
{"school_id":"B000013074","school_name":"부영여자고등학교","school_classification":"고등학교","operational_status":"운영","office_of_edu_code":8490000,"office_of_edu_name":"전라남도교육청","latitude":34.75860431,"longitude":127.6507122},
{"school_id":"B000013571","school_name":"순천고등학교","school_classification":"고등학교","operational_status":"운영","office_of_edu_code":8490000,"office_of_edu_name":"전라남도교육청","latitude":34.94628861,"longitude":127.4871706},
{"school_id":"B000013024","school_name":"성원고등학교","school_classification":"고등학교","operational_status":"운영","office_of_edu_code":8320000,"office_of_edu_name":"전라북도교육청","latitude":35.41521176,"longitude":127.3701251},
{"school_id":"B000012991","school_name":"유일여자고등학교","school_classification":"고등학교","operational_status":"운영","office_of_edu_code":8320000,"office_of_edu_name":"전라북도교육청","latitude":35.8390137,"longitude":127.1599927},
{"school_id":"B000012977","school_name":"전일고등학교","school_classification":"고등학교","operational_status":"운영","office_of_edu_code":8320000,"office_of_edu_name":"전라북도교육청","latitude":35.81567593,"longitude":127.0997119},
{"school_id":"B000011630","school_name":"정읍제일고등학교","school_classification":"고등학교","operational_status":"운영","office_of_edu_code":8320000,"office_of_edu_name":"전라북도교육청","latitude":35.57013279,"longitude":126.8541772},
{"school_id":"B000013038","school_name":"진안제일고등학교","school_classification":"고등학교","operational_status":"운영","office_of_edu_code":8320000,"office_of_edu_name":"전라북도교육청","latitude":35.7869701,"longitude":127.4208007},
{"school_id":"B000011698","school_name":"완도수산고등학교","school_classification":"고등학교","operational_status":"운영","office_of_edu_code":8490000,"office_of_edu_name":"전라남도교육청","latitude":34.32352536,"longitude":126.7441894},
{"school_id":"B000012340","school_name":"광주동신여자고등학교","school_classification":"고등학교","operational_status":"운영","office_of_edu_code":7380000,"office_of_edu_name":"광주광역시교육청","latitude":35.16943786,"longitude":126.9223461},
{"school_id":"B000012349","school_name":"광주진흥고등학교","school_classification":"고등학교","operational_status":"운영","office_of_edu_code":7380000,"office_of_edu_name":"광주광역시교육청","latitude":35.19643601,"longitude":126.8416886},
{"school_id":"B000013069","school_name":"목포혜인여자고등학교","school_classification":"고등학교","operational_status":"운영","office_of_edu_code":8490000,"office_of_edu_name":"전라남도교육청","latitude":34.79998068,"longitude":126.372628},
{"school_id":"B000011639","school_name":"전북하이텍고등학교","school_classification":"고등학교","operational_status":"운영","office_of_edu_code":8320000,"office_of_edu_name":"전라북도교육청","latitude":35.90774937,"longitude":127.0694379},
{"school_id":"B000013140","school_name":"영광고등학교","school_classification":"고등학교","operational_status":"운영","office_of_edu_code":8490000,"office_of_edu_name":"전라남도교육청","latitude":35.26694504,"longitude":126.5065896},
{"school_id":"B000013027","school_name":"인월고등학교","school_classification":"고등학교","operational_status":"운영","office_of_edu_code":8320000,"office_of_edu_name":"전라북도교육청","latitude":35.46495634,"longitude":127.6027247},
{"school_id":"B000013031","school_name":"만경고등학교","school_classification":"고등학교","operational_status":"운영","office_of_edu_code":8320000,"office_of_edu_name":"전라북도교육청","latitude":35.84855174,"longitude":126.8172884},
{"school_id":"B000013568","school_name":"정읍고등학교","school_classification":"고등학교","operational_status":"운영","office_of_edu_code":8320000,"office_of_edu_name":"전라북도교육청","latitude":35.55532014,"longitude":126.8654309},
{"school_id":"B000011695","school_name":"법성고등학교","school_classification":"고등학교","operational_status":"운영","office_of_edu_code":8490000,"office_of_edu_name":"전라남도교육청","latitude":35.35954595,"longitude":126.4574605},
{"school_id":"B000013025","school_name":"남원서진여자고등학교","school_classification":"고등학교","operational_status":"운영","office_of_edu_code":8320000,"office_of_edu_name":"전라북도교육청","latitude":35.42573431,"longitude":127.4065766},
{"school_id":"B000012994","school_name":"군산여자고등학교","school_classification":"고등학교","operational_status":"운영","office_of_edu_code":8320000,"office_of_edu_name":"전라북도교육청","latitude":35.98514231,"longitude":126.7033183},
{"school_id":"B000011654","school_name":"목포중앙고등학교","school_classification":"고등학교","operational_status":"운영","office_of_edu_code":8490000,"office_of_edu_name":"전라남도교육청","latitude":34.8347188,"longitude":126.4258535},
{"school_id":"B000011658","school_name":"여수공업고등학교","school_classification":"고등학교","operational_status":"운영","office_of_edu_code":8490000,"office_of_edu_name":"전라남도교육청","latitude":34.74436688,"longitude":127.7363763},
{"school_id":"B000013019","school_name":"왕신여자고등학교","school_classification":"고등학교","operational_status":"운영","office_of_edu_code":8320000,"office_of_edu_name":"전라북도교육청","latitude":35.68287964,"longitude":126.8894006},
{"school_id":"B000013013","school_name":"정읍여자고등학교","school_classification":"고등학교","operational_status":"운영","office_of_edu_code":8320000,"office_of_edu_name":"전라북도교육청","latitude":35.55916029,"longitude":126.8711038},
{"school_id":"B000013008","school_name":"함열고등학교","school_classification":"고등학교","operational_status":"운영","office_of_edu_code":8320000,"office_of_edu_name":"전라북도교육청","latitude":36.08260778,"longitude":126.9589768},
{"school_id":"B000012351","school_name":"명진고등학교","school_classification":"고등학교","operational_status":"운영","office_of_edu_code":7380000,"office_of_edu_name":"광주광역시교육청","latitude":35.18741842,"longitude":126.8301197},
{"school_id":"B000013118","school_name":"능주고등학교","school_classification":"고등학교","operational_status":"운영","office_of_edu_code":8490000,"office_of_edu_name":"전라남도교육청","latitude":34.98516412,"longitude":126.9590427},
{"school_id":"B000013022","school_name":"남원고등학교","school_classification":"고등학교","operational_status":"운영","office_of_edu_code":8320000,"office_of_edu_name":"전라북도교육청","latitude":35.42102496,"longitude":127.3802691},
{"school_id":"B000011692","school_name":"영산성지고등학교","school_classification":"고등학교","operational_status":"운영","office_of_edu_code":8490000,"office_of_edu_name":"전라남도교육청","latitude":35.32251596,"longitude":126.4361801},
{"school_id":"B000011647","school_name":"오수고등학교","school_classification":"고등학교","operational_status":"운영","office_of_edu_code":8320000,"office_of_edu_name":"전라북도교육청","latitude":35.54753286,"longitude":127.3281427},
{"school_id":"B000011898","school_name":"진도국악고등학교","school_classification":"고등학교","operational_status":"운영","office_of_edu_code":8490000,"office_of_edu_name":"전라남도교육청","latitude":34.4080872,"longitude":126.1907454},
{"school_id":"B000011627","school_name":"군산여자상업고등학교","school_classification":"고등학교","operational_status":"운영","office_of_edu_code":8320000,"office_of_edu_name":"전라북도교육청","latitude":35.95745391,"longitude":126.7075576},
{"school_id":"B000013055","school_name":"해리고등학교","school_classification":"고등학교","operational_status":"운영","office_of_edu_code":8320000,"office_of_edu_name":"전라북도교육청","latitude":35.46582411,"longitude":126.5381075},
{"school_id":"B000013130","school_name":"삼호고등학교","school_classification":"고등학교","operational_status":"운영","office_of_edu_code":8490000,"office_of_edu_name":"전라남도교육청","latitude":34.7511684,"longitude":126.4695883},
{"school_id":"B000011837","school_name":"광주예술고등학교","school_classification":"고등학교","operational_status":"운영","office_of_edu_code":7380000,"office_of_edu_name":"광주광역시교육청","latitude":35.18390762,"longitude":126.8753149},
{"school_id":"B000012996","school_name":"군산제일고등학교","school_classification":"고등학교","operational_status":"운영","office_of_edu_code":8320000,"office_of_edu_name":"전라북도교육청","latitude":35.97273147,"longitude":126.7490296},
{"school_id":"B000013063","school_name":"목포제일여자고등학교","school_classification":"고등학교","operational_status":"운영","office_of_edu_code":8490000,"office_of_edu_name":"전라남도교육청","latitude":34.80762176,"longitude":126.430872},
{"school_id":"B000013061","school_name":"위도고등학교","school_classification":"고등학교","operational_status":"운영","office_of_edu_code":8320000,"office_of_edu_name":"전라북도교육청","latitude":35.60490699,"longitude":126.2961849},
{"school_id":"B000013046","school_name":"산서고등학교","school_classification":"고등학교","operational_status":"운영","office_of_edu_code":8320000,"office_of_edu_name":"전라북도교육청","latitude":35.58388638,"longitude":127.3990162},
{"school_id":"B000013039","school_name":"안천고등학교","school_classification":"고등학교","operational_status":"운영","office_of_edu_code":8320000,"office_of_edu_name":"전라북도교육청","latitude":35.90029728,"longitude":127.5601694},
{"school_id":"B000012988","school_name":"전주기전여자고등학교","school_classification":"고등학교","operational_status":"운영","office_of_edu_code":8320000,"office_of_edu_name":"전라북도교육청","latitude":35.82623909,"longitude":127.100655},
{"school_id":"B000012352","school_name":"광일고등학교","school_classification":"고등학교","operational_status":"운영","office_of_edu_code":7380000,"office_of_edu_name":"광주광역시교육청","latitude":35.22062838,"longitude":126.7419508},
{"school_id":"B000011656","school_name":"여수석유화학고등학교","school_classification":"고등학교","operational_status":"운영","office_of_edu_code":8490000,"office_of_edu_name":"전라남도교육청","latitude":34.77872793,"longitude":127.6431612},
{"school_id":"B000011668","school_name":"광양하이텍고등학교","school_classification":"고등학교","operational_status":"운영","office_of_edu_code":8490000,"office_of_edu_name":"전라남도교육청","latitude":34.98080879,"longitude":127.5910447},
{"school_id":"B000013152","school_name":"지명고등학교","school_classification":"고등학교","operational_status":"운영","office_of_edu_code":8490000,"office_of_edu_name":"전라남도교육청","latitude":35.06337372,"longitude":126.2033743},
{"school_id":"B000011449","school_name":"전남여자상업고등학교","school_classification":"고등학교","operational_status":"운영","office_of_edu_code":7380000,"office_of_edu_name":"광주광역시교육청","latitude":35.19911446,"longitude":126.8956123},
{"school_id":"B000012338","school_name":"금호중앙여자고등학교","school_classification":"고등학교","operational_status":"운영","office_of_edu_code":7380000,"office_of_edu_name":"광주광역시교육청","latitude":35.1785969,"longitude":126.8855126},
{"school_id":"B000011451","school_name":"광주소프트웨어마이스터고등학교","school_classification":"고등학교","operational_status":"운영","office_of_edu_code":7380000,"office_of_edu_name":"광주광역시교육청","latitude":35.14276897,"longitude":126.800772},
{"school_id":"B000013144","school_name":"완도고등학교","school_classification":"고등학교","operational_status":"운영","office_of_edu_code":8490000,"office_of_edu_name":"전라남도교육청","latitude":34.32349501,"longitude":126.7402188},
{"school_id":"B000011634","school_name":"남원제일고등학교","school_classification":"고등학교","operational_status":"운영","office_of_edu_code":8320000,"office_of_edu_name":"전라북도교육청","latitude":35.39142667,"longitude":127.3737218},
{"school_id":"B000012341","school_name":"국제고등학교","school_classification":"고등학교","operational_status":"운영","office_of_edu_code":7380000,"office_of_edu_name":"광주광역시교육청","latitude":35.19911446,"longitude":126.8956123},
{"school_id":"B000011675","school_name":"다향고등학교","school_classification":"고등학교","operational_status":"운영","office_of_edu_code":8490000,"office_of_edu_name":"전라남도교육청","latitude":34.76382902,"longitude":127.0920752},
{"school_id":"B000013042","school_name":"설천고등학교","school_classification":"고등학교","operational_status":"운영","office_of_edu_code":8320000,"office_of_edu_name":"전라북도교육청","latitude":36.01252702,"longitude":127.7881231},
{"school_id":"B000011632","school_name":"칠보고등학교","school_classification":"고등학교","operational_status":"운영","office_of_edu_code":8320000,"office_of_edu_name":"전라북도교육청","latitude":35.60478126,"longitude":126.9919605},
{"school_id":"B000012983","school_name":"우석고등학교","school_classification":"고등학교","operational_status":"운영","office_of_edu_code":8320000,"office_of_edu_name":"전라북도교육청","latitude":35.87324481,"longitude":127.0779915},
{"school_id":"B000013080","school_name":"여양고등학교","school_classification":"고등학교","operational_status":"운영","office_of_edu_code":8490000,"office_of_edu_name":"전라남도교육청","latitude":34.78900295,"longitude":127.6314339},
{"school_id":"B000011444","school_name":"광주여자상업고등학교","school_classification":"고등학교","operational_status":"운영","office_of_edu_code":7380000,"office_of_edu_name":"광주광역시교육청","latitude":35.11548253,"longitude":126.8935344},
{"school_id":"B000013041","school_name":"무주고등학교","school_classification":"고등학교","operational_status":"운영","office_of_edu_code":8320000,"office_of_edu_name":"전라북도교육청","latitude":36.01371751,"longitude":127.6633474},
{"school_id":"B000013004","school_name":"이리남성여자고등학교","school_classification":"고등학교","operational_status":"운영","office_of_edu_code":8320000,"office_of_edu_name":"전라북도교육청","latitude":35.95635944,"longitude":126.9659967},
{"school_id":"B000013058","school_name":"부안고등학교","school_classification":"고등학교","operational_status":"운영","office_of_edu_code":8320000,"office_of_edu_name":"전라북도교육청","latitude":35.71604257,"longitude":126.7289178},
{"school_id":"B000013065","school_name":"목포홍일고등학교","school_classification":"고등학교","operational_status":"운영","office_of_edu_code":8490000,"office_of_edu_name":"전라남도교육청","latitude":34.80223621,"longitude":126.3755128},
{"school_id":"B000012995","school_name":"군산상업고등학교","school_classification":"고등학교","operational_status":"운영","office_of_edu_code":8320000,"office_of_edu_name":"전라북도교육청","latitude":35.97468767,"longitude":126.7000666},
{"school_id":"B000012323","school_name":"설월여자고등학교","school_classification":"고등학교","operational_status":"운영","office_of_edu_code":7380000,"office_of_edu_name":"광주광역시교육청","latitude":35.12612039,"longitude":126.9285943},
{"school_id":"B000011625","school_name":"전주생명과학고등학교","school_classification":"고등학교","operational_status":"운영","office_of_edu_code":8320000,"office_of_edu_name":"전라북도교육청","latitude":35.83672624,"longitude":127.1490519},
{"school_id":"B000013044","school_name":"안성고등학교","school_classification":"고등학교","operational_status":"운영","office_of_edu_code":8320000,"office_of_edu_name":"전라북도교육청","latitude":35.87032408,"longitude":127.6537838},
{"school_id":"B000012307","school_name":"전남여자고등학교","school_classification":"고등학교","operational_status":"운영","office_of_edu_code":7380000,"office_of_edu_name":"광주광역시교육청","latitude":35.15054835,"longitude":126.9208313},
{"school_id":"B000013032","school_name":"만경여자고등학교","school_classification":"고등학교","operational_status":"운영","office_of_edu_code":8320000,"office_of_edu_name":"전라북도교육청","latitude":35.8536891,"longitude":126.8147776},
{"school_id":"B000013099","school_name":"광영고등학교","school_classification":"고등학교","operational_status":"운영","office_of_edu_code":8490000,"office_of_edu_name":"전라남도교육청","latitude":34.96187544,"longitude":127.7146684},
{"school_id":"B000011892","school_name":"전주예술고등학교","school_classification":"고등학교","operational_status":"운영","office_of_edu_code":8320000,"office_of_edu_name":"전라북도교육청","latitude":35.72023332,"longitude":127.1087873},
{"school_id":"B000011642","school_name":"진안공업고등학교","school_classification":"고등학교","operational_status":"운영","office_of_edu_code":8320000,"office_of_edu_name":"전라북도교육청","latitude":35.8005658,"longitude":127.4167038},
{"school_id":"B000013045","school_name":"장수고등학교","school_classification":"고등학교","operational_status":"운영","office_of_edu_code":8320000,"office_of_edu_name":"전라북도교육청","latitude":35.65594323,"longitude":127.5223725},
{"school_id":"B000013565","school_name":"군산고등학교","school_classification":"고등학교","operational_status":"운영","office_of_edu_code":8320000,"office_of_edu_name":"전라북도교육청","latitude":35.97394441,"longitude":126.7195894},
{"school_id":"B000026378","school_name":"함평골프고등학교","school_classification":"고등학교","operational_status":"운영","office_of_edu_code":8490000,"office_of_edu_name":"전라남도교육청","latitude":35.0259649,"longitude":126.5364017},
{"school_id":"B000012347","school_name":"운남고등학교","school_classification":"고등학교","operational_status":"운영","office_of_edu_code":7380000,"office_of_edu_name":"광주광역시교육청","latitude":35.1754299,"longitude":126.8163057},
{"school_id":"B000011691","school_name":"영광공업고등학교","school_classification":"고등학교","operational_status":"운영","office_of_edu_code":8490000,"office_of_edu_name":"전라남도교육청","latitude":35.27888642,"longitude":126.5020801},
{"school_id":"B000013075","school_name":"여수충무고등학교","school_classification":"고등학교","operational_status":"운영","office_of_edu_code":8490000,"office_of_edu_name":"전라남도교육청","latitude":34.77142832,"longitude":127.7110233},
{"school_id":"B000013028","school_name":"김제여자고등학교","school_classification":"고등학교","operational_status":"운영","office_of_edu_code":8320000,"office_of_edu_name":"전라북도교육청","latitude":35.80038584,"longitude":126.8958241},
{"school_id":"B000013529","school_name":"광주제일고등학교","school_classification":"고등학교","operational_status":"운영","office_of_edu_code":7380000,"office_of_edu_name":"광주광역시교육청","latitude":35.15234606,"longitude":126.9070477},
{"school_id":"B000011641","school_name":"한국게임과학고등학교","school_classification":"고등학교","operational_status":"운영","office_of_edu_code":8320000,"office_of_edu_name":"전라북도교육청","latitude":36.08278434,"longitude":127.2854062},
{"school_id":"B000013010","school_name":"여산고등학교","school_classification":"고등학교","operational_status":"운영","office_of_edu_code":8320000,"office_of_edu_name":"전라북도교육청","latitude":36.06692491,"longitude":127.0828426},
{"school_id":"B000013035","school_name":"한별고등학교","school_classification":"고등학교","operational_status":"운영","office_of_edu_code":8320000,"office_of_edu_name":"전라북도교육청","latitude":35.90780171,"longitude":127.0723723},
{"school_id":"B000013155","school_name":"안좌고등학교","school_classification":"고등학교","operational_status":"운영","office_of_edu_code":8490000,"office_of_edu_name":"전라남도교육청","latitude":34.75002635,"longitude":126.1291567},
{"school_id":"B000013137","school_name":"함평고등학교","school_classification":"고등학교","operational_status":"운영","office_of_edu_code":8490000,"office_of_edu_name":"전라남도교육청","latitude":35.10453207,"longitude":126.4922955},
{"school_id":"B000012979","school_name":"완산고등학교","school_classification":"고등학교","operational_status":"운영","office_of_edu_code":8320000,"office_of_edu_name":"전라북도교육청","latitude":35.80240918,"longitude":127.083885},
{"school_id":"B000013126","school_name":"해남고등학교","school_classification":"고등학교","operational_status":"운영","office_of_edu_code":8490000,"office_of_edu_name":"전라남도교육청","latitude":34.57669909,"longitude":126.5950833},
{"school_id":"B000011650","school_name":"줄포자동차공업고등학교","school_classification":"고등학교","operational_status":"운영","office_of_edu_code":8320000,"office_of_edu_name":"전라북도교육청","latitude":35.58512049,"longitude":126.6769191},
{"school_id":"B000011450","school_name":"금파공업고등학교","school_classification":"고등학교","operational_status":"운영","office_of_edu_code":7380000,"office_of_edu_name":"광주광역시교육청","latitude":35.1766955,"longitude":126.8871706},
{"school_id":"B000013059","school_name":"부안여자고등학교","school_classification":"고등학교","operational_status":"운영","office_of_edu_code":8320000,"office_of_edu_name":"전라북도교육청","latitude":35.71495545,"longitude":126.7359295},
{"school_id":"B000013088","school_name":"순천강남여자고등학교","school_classification":"고등학교","operational_status":"운영","office_of_edu_code":8490000,"office_of_edu_name":"전라남도교육청","latitude":34.96313964,"longitude":127.5242459},
{"school_id":"B000012311","school_name":"전남고등학교","school_classification":"고등학교","operational_status":"운영","office_of_edu_code":7380000,"office_of_edu_name":"광주광역시교육청","latitude":35.14747561,"longitude":126.8437327},
{"school_id":"B000011887","school_name":"군산기계공업고등학교","school_classification":"고등학교","operational_status":"운영","office_of_edu_code":8320000,"office_of_edu_name":"전라북도교육청","latitude":35.97728004,"longitude":126.7003422},
{"school_id":"B000013122","school_name":"장흥관산고등학교","school_classification":"고등학교","operational_status":"운영","office_of_edu_code":8490000,"office_of_edu_name":"전라남도교육청","latitude":34.55898249,"longitude":126.9364334},
{"school_id":"B000011637","school_name":"덕암정보고등학교","school_classification":"고등학교","operational_status":"운영","office_of_edu_code":8320000,"office_of_edu_name":"전라북도교육청","latitude":35.81309241,"longitude":126.8870829},
{"school_id":"B000013081","school_name":"여남고등학교","school_classification":"고등학교","operational_status":"운영","office_of_edu_code":8490000,"office_of_edu_name":"전라남도교육청","latitude":34.51226252,"longitude":127.7679765},
{"school_id":"B000013067","school_name":"목포마리아회고등학교","school_classification":"고등학교","operational_status":"운영","office_of_edu_code":8490000,"office_of_edu_name":"전라남도교육청","latitude":34.81310262,"longitude":126.3945838},
{"school_id":"B000013066","school_name":"목포덕인고등학교","school_classification":"고등학교","operational_status":"운영","office_of_edu_code":8490000,"office_of_edu_name":"전라남도교육청","latitude":34.79998068,"longitude":126.372628},
{"school_id":"B000013007","school_name":"원광정보예술고등학교","school_classification":"고등학교","operational_status":"운영","office_of_edu_code":8320000,"office_of_edu_name":"전라북도교육청","latitude":35.95432998,"longitude":126.9434322},
{"school_id":"B000013015","school_name":"배영고등학교","school_classification":"고등학교","operational_status":"운영","office_of_edu_code":8320000,"office_of_edu_name":"전라북도교육청","latitude":35.60126026,"longitude":126.8116536},
{"school_id":"B000012989","school_name":"전주중앙여자고등학교","school_classification":"고등학교","operational_status":"운영","office_of_edu_code":8320000,"office_of_edu_name":"전라북도교육청","latitude":35.82828292,"longitude":127.1678274},
{"school_id":"B000011626","school_name":"완산여자고등학교","school_classification":"고등학교","operational_status":"운영","office_of_edu_code":8320000,"office_of_edu_name":"전라북도교육청","latitude":35.7920337,"longitude":127.1383432},
{"school_id":"B000013573","school_name":"광양제철고등학교","school_classification":"고등학교","operational_status":"운영","office_of_edu_code":8490000,"office_of_edu_name":"전라남도교육청","latitude":34.94658903,"longitude":127.7271323},
{"school_id":"B000012998","school_name":"군산중앙여자고등학교","school_classification":"고등학교","operational_status":"운영","office_of_edu_code":8320000,"office_of_edu_name":"전라북도교육청","latitude":35.9681727,"longitude":126.7114926},
{"school_id":"B000012980","school_name":"전주신흥고등학교","school_classification":"고등학교","operational_status":"운영","office_of_edu_code":8320000,"office_of_edu_name":"전라북도교육청","latitude":35.81541013,"longitude":127.1362767},
{"school_id":"B000012322","school_name":"광주수피아여자고등학교","school_classification":"고등학교","operational_status":"운영","office_of_edu_code":7380000,"office_of_edu_name":"광주광역시교육청","latitude":35.13719317,"longitude":126.911614},
{"school_id":"B000013072","school_name":"여천고등학교","school_classification":"고등학교","operational_status":"운영","office_of_edu_code":8490000,"office_of_edu_name":"전라남도교육청","latitude":34.77142321,"longitude":127.6624054},
{"school_id":"B000012334","school_name":"광주동신고등학교","school_classification":"고등학교","operational_status":"운영","office_of_edu_code":7380000,"office_of_edu_name":"광주광역시교육청","latitude":35.16943786,"longitude":126.9223461},
{"school_id":"B000012327","school_name":"동아여자고등학교","school_classification":"고등학교","operational_status":"운영","office_of_edu_code":7380000,"office_of_edu_name":"광주광역시교육청","latitude":35.12584749,"longitude":126.9220748},
{"school_id":"B000011694","school_name":"영광전자고등학교","school_classification":"고등학교","operational_status":"운영","office_of_edu_code":8490000,"office_of_edu_name":"전라남도교육청","latitude":35.2228865,"longitude":126.3712771},
{"school_id":"B000011652","school_name":"목포공업고등학교","school_classification":"고등학교","operational_status":"운영","office_of_edu_code":8490000,"office_of_edu_name":"전라남도교육청","latitude":34.79607323,"longitude":126.4038678},
{"school_id":"B000011888","school_name":"전북외국어고등학교","school_classification":"고등학교","operational_status":"운영","office_of_edu_code":8320000,"office_of_edu_name":"전라북도교육청","latitude":35.98169109,"longitude":126.6852969},
{"school_id":"B000013141","school_name":"해룡고등학교","school_classification":"고등학교","operational_status":"운영","office_of_edu_code":8490000,"office_of_edu_name":"전라남도교육청","latitude":35.26843387,"longitude":126.513448},
{"school_id":"B000012985","school_name":"전주근영여자고등학교","school_classification":"고등학교","operational_status":"운영","office_of_edu_code":8320000,"office_of_edu_name":"전라북도교육청","latitude":35.82030227,"longitude":127.1246416},
{"school_id":"B000013049","school_name":"임실고등학교","school_classification":"고등학교","operational_status":"운영","office_of_edu_code":8320000,"office_of_edu_name":"전라북도교육청","latitude":35.62192952,"longitude":127.2867026},
{"school_id":"B000012344","school_name":"성덕고등학교","school_classification":"고등학교","operational_status":"운영","office_of_edu_code":7380000,"office_of_edu_name":"광주광역시교육청","latitude":35.19585015,"longitude":126.8174891},
{"school_id":"B000026000","school_name":"양현고등학교","school_classification":"고등학교","operational_status":"운영","office_of_edu_code":8320000,"office_of_edu_name":"전라북도교육청","latitude":35.8421842,"longitude":127.0587816},
{"school_id":"B000012325","school_name":"대광여자고등학교","school_classification":"고등학교","operational_status":"운영","office_of_edu_code":7380000,"office_of_edu_name":"광주광역시교육청","latitude":35.12524421,"longitude":126.8991024},
{"school_id":"B000013036","school_name":"완주고등학교","school_classification":"고등학교","operational_status":"운영","office_of_edu_code":8320000,"office_of_edu_name":"전라북도교육청","latitude":35.94076736,"longitude":127.1662965},
{"school_id":"B000013056","school_name":"고창북고등학교","school_classification":"고등학교","operational_status":"운영","office_of_edu_code":8320000,"office_of_edu_name":"전라북도교육청","latitude":35.51504641,"longitude":126.6979364},
{"school_id":"B000013083","school_name":"순천제일고등학교","school_classification":"고등학교","operational_status":"운영","office_of_edu_code":8490000,"office_of_edu_name":"전라남도교육청","latitude":34.98863327,"longitude":127.4885276},
{"school_id":"B000012345","school_name":"장덕고등학교","school_classification":"고등학교","operational_status":"운영","office_of_edu_code":7380000,"office_of_edu_name":"광주광역시교육청","latitude":35.1859988,"longitude":126.8153427},
{"school_id":"B000013006","school_name":"전북제일고등학교","school_classification":"고등학교","operational_status":"운영","office_of_edu_code":8320000,"office_of_edu_name":"전라북도교육청","latitude":35.93424298,"longitude":126.9418576},
{"school_id":"B000011636","school_name":"김제농생명마이스터고등학교","school_classification":"고등학교","operational_status":"운영","office_of_edu_code":8320000,"office_of_edu_name":"전라북도교육청","latitude":35.79232044,"longitude":126.8904612},
{"school_id":"B000012346","school_name":"수완고등학교","school_classification":"고등학교","operational_status":"운영","office_of_edu_code":7380000,"office_of_edu_name":"광주광역시교육청","latitude":35.1980738,"longitude":126.8259386},
{"school_id":"B000011657","school_name":"진성여자고등학교","school_classification":"고등학교","operational_status":"운영","office_of_edu_code":8490000,"office_of_edu_name":"전라남도교육청","latitude":34.73964826,"longitude":127.7213738},
{"school_id":"B000012308","school_name":"조선대학교부속고등학교","school_classification":"고등학교","operational_status":"운영","office_of_edu_code":7380000,"office_of_edu_name":"광주광역시교육청","latitude":35.13505815,"longitude":126.9308097},
{"school_id":"B000013567","school_name":"남성고등학교","school_classification":"고등학교","operational_status":"운영","office_of_edu_code":8320000,"office_of_edu_name":"전라북도교육청","latitude":35.95635944,"longitude":126.9659967},
{"school_id":"B000012320","school_name":"문성고등학교","school_classification":"고등학교","operational_status":"운영","office_of_edu_code":7380000,"office_of_edu_name":"광주광역시교육청","latitude":35.12045939,"longitude":126.9049884},
{"school_id":"B000012328","school_name":"송원여자고등학교","school_classification":"고등학교","operational_status":"운영","office_of_edu_code":7380000,"office_of_edu_name":"광주광역시교육청","latitude":35.10818451,"longitude":126.8732664},
{"school_id":"B000013077","school_name":"여수중앙여자고등학교","school_classification":"고등학교","operational_status":"운영","office_of_edu_code":8490000,"office_of_edu_name":"전라남도교육청","latitude":34.75308935,"longitude":127.7329193},
{"school_id":"B000012972","school_name":"전주고등학교","school_classification":"고등학교","operational_status":"운영","office_of_edu_code":8320000,"office_of_edu_name":"전라북도교육청","latitude":35.82470798,"longitude":127.1525515},
{"school_id":"B000012317","school_name":"광덕고등학교","school_classification":"고등학교","operational_status":"운영","office_of_edu_code":7380000,"office_of_edu_name":"광주광역시교육청","latitude":35.1446869,"longitude":126.8784967},
{"school_id":"B000011633","school_name":"남원용성고등학교","school_classification":"고등학교","operational_status":"운영","office_of_edu_code":8320000,"office_of_edu_name":"전라북도교육청","latitude":35.41795647,"longitude":127.3929209},
{"school_id":"B000011896","school_name":"전남체육고등학교","school_classification":"고등학교","operational_status":"운영","office_of_edu_code":8490000,"office_of_edu_name":"전라남도교육청","latitude":34.84533769,"longitude":126.4962094},
{"school_id":"B000013091","school_name":"순천복성고등학교","school_classification":"고등학교","operational_status":"운영","office_of_edu_code":8490000,"office_of_edu_name":"전라남도교육청","latitude":34.94660642,"longitude":127.5441558},
{"school_id":"B000022860","school_name":"매성고등학교","school_classification":"고등학교","operational_status":"운영","office_of_edu_code":8490000,"office_of_edu_name":"전라남도교육청","latitude":35.0286069,"longitude":126.7917708},
{"school_id":"B000013047","school_name":"백화여자고등학교","school_classification":"고등학교","operational_status":"운영","office_of_edu_code":8320000,"office_of_edu_name":"전라북도교육청","latitude":35.72778418,"longitude":127.5861808},
{"school_id":"B000011646","school_name":"한국치즈과학고등학교","school_classification":"고등학교","operational_status":"운영","office_of_edu_code":8320000,"office_of_edu_name":"전라북도교육청","latitude":35.53327378,"longitude":127.1647542},
{"school_id":"B000011454","school_name":"동명고등학교","school_classification":"고등학교","operational_status":"운영","office_of_edu_code":7380000,"office_of_edu_name":"광주광역시교육청","latitude":35.15572544,"longitude":126.7407774},
{"school_id":"B000027244","school_name":"한국창의예술고등학교","school_classification":"고등학교","operational_status":"운영","office_of_edu_code":8490000,"office_of_edu_name":"전라남도교육청","latitude":34.94880756,"longitude":127.7019096},
{"school_id":"B000013012","school_name":"익산고등학교","school_classification":"고등학교","operational_status":"운영","office_of_edu_code":8320000,"office_of_edu_name":"전라북도교육청","latitude":35.99491837,"longitude":127.0554797},
{"school_id":"B000011676","school_name":"벌교상업고등학교","school_classification":"고등학교","operational_status":"운영","office_of_edu_code":8490000,"office_of_edu_name":"전라남도교육청","latitude":34.84667869,"longitude":127.3495607},
{"school_id":"B000013014","school_name":"호남고등학교","school_classification":"고등학교","operational_status":"운영","office_of_edu_code":8320000,"office_of_edu_name":"전라북도교육청","latitude":35.55709637,"longitude":126.8511513},
{"school_id":"B000013037","school_name":"고산고등학교","school_classification":"고등학교","operational_status":"운영","office_of_edu_code":8320000,"office_of_edu_name":"전라북도교육청","latitude":35.97989881,"longitude":127.20166},
{"school_id":"B000013016","school_name":"서영여자고등학교","school_classification":"고등학교","operational_status":"운영","office_of_edu_code":8320000,"office_of_edu_name":"전라북도교육청","latitude":35.57916708,"longitude":126.8520797},
{"school_id":"B000013033","school_name":"김제서고등학교","school_classification":"고등학교","operational_status":"운영","office_of_edu_code":8320000,"office_of_edu_name":"전라북도교육청","latitude":35.77104473,"longitude":126.8148592},
{"school_id":"B000013153","school_name":"신안해양과학고등학교","school_classification":"고등학교","operational_status":"운영","office_of_edu_code":8490000,"office_of_edu_name":"전라남도교육청","latitude":34.86192398,"longitude":126.3145296},
{"school_id":"B000011891","school_name":"전북체육고등학교","school_classification":"고등학교","operational_status":"운영","office_of_edu_code":8320000,"office_of_edu_name":"전라북도교육청","latitude":35.8655498,"longitude":127.2506488},
{"school_id":"B000012315","school_name":"광주대동고등학교","school_classification":"고등학교","operational_status":"운영","office_of_edu_code":7380000,"office_of_edu_name":"광주광역시교육청","latitude":35.11937249,"longitude":126.8497281},
{"school_id":"B000013029","school_name":"김제고등학교","school_classification":"고등학교","operational_status":"운영","office_of_edu_code":8320000,"office_of_edu_name":"전라북도교육청","latitude":35.79107768,"longitude":126.8970893},
{"school_id":"B000013011","school_name":"성일고등학교","school_classification":"고등학교","operational_status":"운영","office_of_edu_code":8320000,"office_of_edu_name":"전라북도교육청","latitude":36.00845511,"longitude":126.9466218},
{"school_id":"B000012986","school_name":"호남제일고등학교","school_classification":"고등학교","operational_status":"운영","office_of_edu_code":8320000,"office_of_edu_name":"전라북도교육청","latitude":35.81390641,"longitude":127.0992322},
{"school_id":"B000011836","school_name":"광주체육고등학교","school_classification":"고등학교","operational_status":"운영","office_of_edu_code":7380000,"office_of_edu_name":"광주광역시교육청","latitude":35.18250305,"longitude":126.8794162},
{"school_id":"B000012332","school_name":"문정여자고등학교","school_classification":"고등학교","operational_status":"운영","office_of_edu_code":7380000,"office_of_edu_name":"광주광역시교육청","latitude":35.18919758,"longitude":126.9194511},
{"school_id":"B000011648","school_name":"강호항공고등학교","school_classification":"고등학교","operational_status":"운영","office_of_edu_code":8320000,"office_of_edu_name":"전라북도교육청","latitude":35.4251018,"longitude":126.6999786},
{"school_id":"B000011631","school_name":"학산고등학교","school_classification":"고등학교","operational_status":"운영","office_of_edu_code":8320000,"office_of_edu_name":"전라북도교육청","latitude":35.56034415,"longitude":126.8753952},
{"school_id":"B000011446","school_name":"동일미래과학고등학교","school_classification":"고등학교","operational_status":"운영","office_of_edu_code":7380000,"office_of_edu_name":"광주광역시교육청","latitude":35.12886986,"longitude":126.9273037},
{"school_id":"B000011890","school_name":"전북과학고등학교","school_classification":"고등학교","operational_status":"운영","office_of_edu_code":8320000,"office_of_edu_name":"전라북도교육청","latitude":36.01457166,"longitude":127.0347845},
{"school_id":"B000012336","school_name":"금호고등학교","school_classification":"고등학교","operational_status":"운영","office_of_edu_code":7380000,"office_of_edu_name":"광주광역시교육청","latitude":35.1785969,"longitude":126.8855126},
{"school_id":"B000011623","school_name":"전주상업정보고등학교","school_classification":"고등학교","operational_status":"운영","office_of_edu_code":8320000,"office_of_edu_name":"전라북도교육청","latitude":35.81067636,"longitude":127.124988},
{"school_id":"B000013569","school_name":"목포고등학교","school_classification":"고등학교","operational_status":"운영","office_of_edu_code":8490000,"office_of_edu_name":"전라남도교육청","latitude":34.80861333,"longitude":126.3918035},
{"school_id":"B000013149","school_name":"완도금일고등학교","school_classification":"고등학교","operational_status":"운영","office_of_edu_code":8490000,"office_of_edu_name":"전라남도교육청","latitude":34.34940103,"longitude":127.0324393},
{"school_id":"B000012982","school_name":"전주영생고등학교","school_classification":"고등학교","operational_status":"운영","office_of_edu_code":8320000,"office_of_edu_name":"전라북도교육청","latitude":35.81609983,"longitude":127.0919874},
{"school_id":"B000025421","school_name":"봉황고등학교","school_classification":"고등학교","operational_status":"운영","office_of_edu_code":8490000,"office_of_edu_name":"전라남도교육청","latitude":35.00741421,"longitude":126.7861436},
{"school_id":"B000012993","school_name":"군산동고등학교","school_classification":"고등학교","operational_status":"운영","office_of_edu_code":8320000,"office_of_edu_name":"전라북도교육청","latitude":35.97056499,"longitude":126.767976},
{"school_id":"B000012330","school_name":"호남삼육고등학교","school_classification":"고등학교","operational_status":"운영","office_of_edu_code":7380000,"office_of_edu_name":"광주광역시교육청","latitude":35.1302339,"longitude":126.893732},
{"school_id":"B000013017","school_name":"정주고등학교","school_classification":"고등학교","operational_status":"운영","office_of_edu_code":8320000,"office_of_edu_name":"전라북도교육청","latitude":35.54287125,"longitude":126.8902183},
{"school_id":"B000012976","school_name":"전주제일고등학교","school_classification":"고등학교","operational_status":"운영","office_of_edu_code":8320000,"office_of_edu_name":"전라북도교육청","latitude":35.82095883,"longitude":127.1580639},
{"school_id":"B000012326","school_name":"대성여자고등학교","school_classification":"고등학교","operational_status":"운영","office_of_edu_code":7380000,"office_of_edu_name":"광주광역시교육청","latitude":35.11824545,"longitude":126.894003},
{"school_id":"B000012973","school_name":"전라고등학교","school_classification":"고등학교","operational_status":"운영","office_of_edu_code":8320000,"office_of_edu_name":"전라북도교육청","latitude":35.8607435,"longitude":127.1251438},
{"school_id":"B000022889","school_name":"김제자영고등학교농업계공동실습소","school_classification":"고등학교","operational_status":"운영","office_of_edu_code":8320000,"office_of_edu_name":"전라북도교육청","latitude":35.8346141,"longitude":126.9214294},
{"school_id":"B000012337","school_name":"살레시오고등학교","school_classification":"고등학교","operational_status":"운영","office_of_edu_code":7380000,"office_of_edu_name":"광주광역시교육청","latitude":35.21688754,"longitude":126.8920601},
{"school_id":"B000012329","school_name":"숭의과학기술고등학교","school_classification":"고등학교","operational_status":"운영","office_of_edu_code":7380000,"office_of_edu_name":"광주광역시교육청","latitude":35.12902417,"longitude":126.9237699},
{"school_id":"B000012339","school_name":"광주경신여자고등학교","school_classification":"고등학교","operational_status":"운영","office_of_edu_code":7380000,"office_of_edu_name":"광주광역시교육청","latitude":35.17473839,"longitude":126.8926244},
{"school_id":"B000012990","school_name":"전북여자고등학교","school_classification":"고등학교","operational_status":"운영","office_of_edu_code":8320000,"office_of_edu_name":"전라북도교육청","latitude":35.87301072,"longitude":127.0840677},
{"school_id":"B000012975","school_name":"전주여자고등학교","school_classification":"고등학교","operational_status":"운영","office_of_edu_code":8320000,"office_of_edu_name":"전라북도교육청","latitude":35.83662729,"longitude":127.145885},
{"school_id":"B000012350","school_name":"정광고등학교","school_classification":"고등학교","operational_status":"운영","office_of_edu_code":7380000,"office_of_edu_name":"광주광역시교육청","latitude":35.15514287,"longitude":126.7960286},
{"school_id":"B000013090","school_name":"한국바둑고등학교","school_classification":"고등학교","operational_status":"운영","office_of_edu_code":8490000,"office_of_edu_name":"전라남도교육청","latitude":35.0748151,"longitude":127.2403264},
{"school_id":"B000026964","school_name":"무안고등학교","school_classification":"고등학교","operational_status":"운영","office_of_edu_code":8490000,"office_of_edu_name":"전라남도교육청","latitude":34.98164887,"longitude":126.467027},
{"school_id":"B000011674","school_name":"고흥산업과학고등학교","school_classification":"고등학교","operational_status":"운영","office_of_edu_code":8490000,"office_of_edu_name":"전라남도교육청","latitude":34.60253833,"longitude":127.275209},
{"school_id":"B000012333","school_name":"빛고을고등학교","school_classification":"고등학교","operational_status":"운영","office_of_edu_code":7380000,"office_of_edu_name":"광주광역시교육청","latitude":35.20987484,"longitude":126.8620535},
{"school_id":"B000013021","school_name":"태인고등학교","school_classification":"고등학교","operational_status":"운영","office_of_edu_code":8320000,"office_of_edu_name":"전라북도교육청","latitude":35.6526476,"longitude":126.9389432},
{"school_id":"B000013564","school_name":"상산고등학교","school_classification":"고등학교","operational_status":"운영","office_of_edu_code":8320000,"office_of_edu_name":"전라북도교육청","latitude":35.80508487,"longitude":127.1197274},
{"school_id":"B000013051","school_name":"순창고등학교","school_classification":"고등학교","operational_status":"운영","office_of_edu_code":8320000,"office_of_edu_name":"전라북도교육청","latitude":35.37990162,"longitude":127.1405508},
{"school_id":"B000012992","school_name":"전주한일고등학교","school_classification":"고등학교","operational_status":"운영","office_of_edu_code":8320000,"office_of_edu_name":"전라북도교육청","latitude":35.83124557,"longitude":127.1236324},
{"school_id":"B000011663","school_name":"순천전자고등학교","school_classification":"고등학교","operational_status":"운영","office_of_edu_code":8490000,"office_of_edu_name":"전라남도교육청","latitude":34.99825546,"longitude":127.4880054},
{"school_id":"B000013108","school_name":"녹동고등학교","school_classification":"고등학교","operational_status":"운영","office_of_edu_code":8490000,"office_of_edu_name":"전라남도교육청","latitude":34.53882429,"longitude":127.1421118},
{"school_id":"B000013050","school_name":"순창제일고등학교","school_classification":"고등학교","operational_status":"운영","office_of_edu_code":8320000,"office_of_edu_name":"전라북도교육청","latitude":35.37893092,"longitude":127.1514256},
{"school_id":"B000013018","school_name":"신태인고등학교","school_classification":"고등학교","operational_status":"운영","office_of_edu_code":8320000,"office_of_edu_name":"전라북도교육청","latitude":35.69198096,"longitude":126.8937261},
{"school_id":"B000012981","school_name":"동암고등학교","school_classification":"고등학교","operational_status":"운영","office_of_edu_code":8320000,"office_of_edu_name":"전라북도교육청","latitude":35.80652136,"longitude":127.1012295},
{"school_id":"B000013107","school_name":"고흥고등학교","school_classification":"고등학교","operational_status":"운영","office_of_edu_code":8490000,"office_of_edu_name":"전라남도교육청","latitude":34.60657361,"longitude":127.2942935},
{"school_id":"B000012997","school_name":"군산영광여자고등학교","school_classification":"고등학교","operational_status":"운영","office_of_edu_code":8320000,"office_of_edu_name":"전라북도교육청","latitude":35.9826766,"longitude":126.7148654},
{"school_id":"B000012313","school_name":"상무고등학교","school_classification":"고등학교","operational_status":"운영","office_of_edu_code":7380000,"office_of_edu_name":"광주광역시교육청","latitude":35.15479285,"longitude":126.8596319},
{"school_id":"B000011835","school_name":"광주과학고등학교","school_classification":"고등학교","operational_status":"운영","office_of_edu_code":7380000,"office_of_edu_name":"광주광역시교육청","latitude":35.22815205,"longitude":126.8478336},
{"school_id":"B000012343","school_name":"광주숭일고등학교","school_classification":"고등학교","operational_status":"운영","office_of_edu_code":7380000,"office_of_edu_name":"광주광역시교육청","latitude":35.21781348,"longitude":126.8969064},
{"school_id":"B000012309","school_name":"조선대학교여자고등학교","school_classification":"고등학교","operational_status":"운영","office_of_edu_code":7380000,"office_of_edu_name":"광주광역시교육청","latitude":35.146402,"longitude":126.9327203},
{"school_id":"B000013086","school_name":"순천금당고등학교","school_classification":"고등학교","operational_status":"운영","office_of_edu_code":8490000,"office_of_edu_name":"전라남도교육청","latitude":34.95086788,"longitude":127.5233515},
{"school_id":"B000011661","school_name":"순천청암고등학교","school_classification":"고등학교","operational_status":"운영","office_of_edu_code":8490000,"office_of_edu_name":"전라남도교육청","latitude":34.92772924,"longitude":127.4895729},
{"school_id":"B000027283","school_name":"함평학다리고등학교","school_classification":"고등학교","operational_status":"운영","office_of_edu_code":8490000,"office_of_edu_name":"전라남도교육청","latitude":35.0603902,"longitude":126.5147447},
{"school_id":"B000013054","school_name":"고창여자고등학교","school_classification":"고등학교","operational_status":"운영","office_of_edu_code":8320000,"office_of_edu_name":"전라북도교육청","latitude":35.4393866,"longitude":126.6990768},
{"school_id":"B000011649","school_name":"서림고등학교","school_classification":"고등학교","operational_status":"운영","office_of_edu_code":8320000,"office_of_edu_name":"전라북도교육청","latitude":35.7211379,"longitude":126.7428757},
{"school_id":"B000012348","school_name":"첨단고등학교","school_classification":"고등학교","operational_status":"운영","office_of_edu_code":7380000,"office_of_edu_name":"광주광역시교육청","latitude":35.2067291,"longitude":126.8375619},
{"school_id":"B000012314","school_name":"풍암고등학교","school_classification":"고등학교","operational_status":"운영","office_of_edu_code":7380000,"office_of_edu_name":"광주광역시교육청","latitude":35.12295098,"longitude":126.8674015},
{"school_id":"B000012999","school_name":"한들고등학교","school_classification":"고등학교","operational_status":"운영","office_of_edu_code":8320000,"office_of_edu_name":"전라북도교육청","latitude":35.94316674,"longitude":126.8050803},
{"school_id":"B000013105","school_name":"옥과고등학교","school_classification":"고등학교","operational_status":"운영","office_of_edu_code":8490000,"office_of_edu_name":"전라남도교육청","latitude":35.27425387,"longitude":127.1299726},
{"school_id":"B000011651","school_name":"부안제일고등학교","school_classification":"고등학교","operational_status":"운영","office_of_edu_code":8320000,"office_of_edu_name":"전라북도교육청","latitude":35.72864208,"longitude":126.7225062},
{"school_id":"B000013131","school_name":"영암여자고등학교","school_classification":"고등학교","operational_status":"운영","office_of_edu_code":8490000,"office_of_edu_name":"전라남도교육청","latitude":34.80443156,"longitude":126.7034113},
{"school_id":"B000013526","school_name":"광주고등학교","school_classification":"고등학교","operational_status":"운영","office_of_edu_code":7380000,"office_of_edu_name":"광주광역시교육청","latitude":35.15944246,"longitude":126.9210072},
{"school_id":"B000011624","school_name":"전주공업고등학교","school_classification":"고등학교","operational_status":"운영","office_of_edu_code":8320000,"office_of_edu_name":"전라북도교육청","latitude":35.86235186,"longitude":127.0753697},
{"school_id":"B000013102","school_name":"담양고등학교","school_classification":"고등학교","operational_status":"운영","office_of_edu_code":8490000,"office_of_edu_name":"전라남도교육청","latitude":35.31418401,"longitude":126.9808879}]