[{"school_id":"B000012048","school_name":"서울문영여자고등학교","school_classification":"고등학교","operational_status":"운영","office_of_edu_code":7010000,"office_of_edu_name":"서울특별시교육청","latitude":37.47290457,"longitude":126.9509181},
{"school_id":"B000012028","school_name":"독산고등학교","school_classification":"고등학교","operational_status":"운영","office_of_edu_code":7010000,"office_of_edu_name":"서울특별시교육청","latitude":37.47621872,"longitude":126.9109732},
{"school_id":"B000013479","school_name":"대영고등학교","school_classification":"고등학교","operational_status":"운영","office_of_edu_code":7010000,"office_of_edu_name":"서울특별시교육청","latitude":37.50366109,"longitude":126.9058657},
{"school_id":"B000012076","school_name":"방산고등학교","school_classification":"고등학교","operational_status":"운영","office_of_edu_code":7010000,"office_of_edu_name":"서울특별시교육청","latitude":37.5083132,"longitude":127.1204696},
{"school_id":"B000011335","school_name":"서울영상고등학교","school_classification":"고등학교","operational_status":"운영","office_of_edu_code":7010000,"office_of_edu_name":"서울특별시교육청","latitude":37.52330444,"longitude":126.8602935},
{"school_id":"B000011923","school_name":"상명대학교사범대학부속여자고등학교","school_classification":"고등학교","operational_status":"운영","office_of_edu_code":7010000,"office_of_edu_name":"서울특별시교육청","latitude":37.60410891,"longitude":126.9551595},
{"school_id":"B000013477","school_name":"우신고등학교","school_classification":"고등학교","operational_status":"운영","office_of_edu_code":7010000,"office_of_edu_name":"서울특별시교육청","latitude":37.49490231,"longitude":126.8263536},
{"school_id":"B000011355","school_name":"단국대학교부속소프트웨어고등학교","school_classification":"고등학교","operational_status":"운영","office_of_edu_code":7010000,"office_of_edu_name":"서울특별시교육청","latitude":37.4956248,"longitude":127.0577682},
{"school_id":"B000012085","school_name":"정신여자고등학교","school_classification":"고등학교","operational_status":"운영","office_of_edu_code":7010000,"office_of_edu_name":"서울특별시교육청","latitude":37.50945384,"longitude":127.0738473},
{"school_id":"B000011942","school_name":"동국대학교사범대학부속고등학교","school_classification":"고등학교","operational_status":"운영","office_of_edu_code":7010000,"office_of_edu_name":"서울특별시교육청","latitude":37.57804718,"longitude":127.075133},
{"school_id":"B000022777","school_name":"가재울고등학교","school_classification":"고등학교","operational_status":"운영","office_of_edu_code":7010000,"office_of_edu_name":"서울특별시교육청","latitude":37.57444587,"longitude":126.9094148},
{"school_id":"B000012067","school_name":"단국대학교사범대학부속고등학교","school_classification":"고등학교","operational_status":"운영","office_of_edu_code":7010000,"office_of_edu_name":"서울특별시교육청","latitude":37.49561749,"longitude":127.0577682},
{"school_id":"B000011312","school_name":"고명외식고등학교","school_classification":"고등학교","operational_status":"운영","office_of_edu_code":7010000,"office_of_edu_name":"서울특별시교육청","latitude":37.59767468,"longitude":127.0191869},
{"school_id":"B000011331","school_name":"홍익디자인고등학교","school_classification":"고등학교","operational_status":"운영","office_of_edu_code":7010000,"office_of_edu_name":"서울특별시교육청","latitude":37.56351064,"longitude":126.9191663},
{"school_id":"B000012051","school_name":"영락고등학교","school_classification":"고등학교","operational_status":"운영","office_of_edu_code":7010000,"office_of_edu_name":"서울특별시교육청","latitude":37.47654259,"longitude":126.9454164},
{"school_id":"B000013458","school_name":"원묵고등학교","school_classification":"고등학교","operational_status":"운영","office_of_edu_code":7010000,"office_of_edu_name":"서울특별시교육청","latitude":37.61523231,"longitude":127.0855078},
{"school_id":"B000012069","school_name":"은광여자고등학교","school_classification":"고등학교","operational_status":"운영","office_of_edu_code":7010000,"office_of_edu_name":"서울특별시교육청","latitude":37.48837857,"longitude":127.0352324},
{"school_id":"B000013464","school_name":"선덕고등학교","school_classification":"고등학교","operational_status":"운영","office_of_edu_code":7010000,"office_of_edu_name":"서울특별시교육청","latitude":37.65634868,"longitude":127.0268766},
{"school_id":"B000013456","school_name":"대광고등학교","school_classification":"고등학교","operational_status":"운영","office_of_edu_code":7010000,"office_of_edu_name":"서울특별시교육청","latitude":37.57795467,"longitude":127.0253235},
{"school_id":"B000011354","school_name":"서울로봇고등학교","school_classification":"고등학교","operational_status":"운영","office_of_edu_code":7010000,"office_of_edu_name":"서울특별시교육청","latitude":37.48073174,"longitude":127.0845761},
{"school_id":"B000012014","school_name":"화곡고등학교","school_classification":"고등학교","operational_status":"운영","office_of_edu_code":7010000,"office_of_edu_name":"서울특별시교육청","latitude":37.54793611,"longitude":126.8315357},
{"school_id":"B000012003","school_name":"광영고등학교","school_classification":"고등학교","operational_status":"운영","office_of_edu_code":7010000,"office_of_edu_name":"서울특별시교육청","latitude":37.5371981,"longitude":126.8232759},
{"school_id":"B000012007","school_name":"광영여자고등학교","school_classification":"고등학교","operational_status":"운영","office_of_edu_code":7010000,"office_of_edu_name":"서울특별시교육청","latitude":37.5371981,"longitude":126.8232464},
{"school_id":"B000012041","school_name":"숭의여자고등학교","school_classification":"고등학교","operational_status":"운영","office_of_edu_code":7010000,"office_of_edu_name":"서울특별시교육청","latitude":37.50736414,"longitude":126.9292433},
{"school_id":"B000011352","school_name":"영락의료과학고등학교","school_classification":"고등학교","operational_status":"운영","office_of_edu_code":7010000,"office_of_edu_name":"서울특별시교육청","latitude":37.476588,"longitude":126.9454164},
{"school_id":"B000011974","school_name":"재현고등학교","school_classification":"고등학교","operational_status":"운영","office_of_edu_code":7010000,"office_of_edu_name":"서울특별시교육청","latitude":37.66129064,"longitude":127.0807998},
{"school_id":"B000011345","school_name":"서서울생활과학고등학교","school_classification":"고등학교","operational_status":"운영","office_of_edu_code":7010000,"office_of_edu_name":"서울특별시교육청","latitude":37.50382919,"longitude":126.8282007},
{"school_id":"B000011805","school_name":"수도전기공업고등학교","school_classification":"고등학교","operational_status":"운영","office_of_edu_code":7010000,"office_of_edu_name":"서울특별시교육청","latitude":37.48493754,"longitude":127.0644787},
{"school_id":"B000012025","school_name":"구일고등학교","school_classification":"고등학교","operational_status":"운영","office_of_edu_code":7010000,"office_of_edu_name":"서울특별시교육청","latitude":37.49350529,"longitude":126.8746185},
{"school_id":"B000012065","school_name":"영동고등학교","school_classification":"고등학교","operational_status":"운영","office_of_edu_code":7010000,"office_of_edu_name":"서울특별시교육청","latitude":37.52138901,"longitude":127.0437393},
{"school_id":"B000011304","school_name":"휘경공업고등학교","school_classification":"고등학교","operational_status":"운영","office_of_edu_code":7010000,"office_of_edu_name":"서울특별시교육청","latitude":37.5852156,"longitude":127.0697283},
{"school_id":"B000011349","school_name":"서울여자상업고등학교","school_classification":"고등학교","operational_status":"운영","office_of_edu_code":7010000,"office_of_edu_name":"서울특별시교육청","latitude":37.47290457,"longitude":126.9509181},
{"school_id":"B000011320","school_name":"인덕과학기술고등학교","school_classification":"고등학교","operational_status":"운영","office_of_edu_code":7010000,"office_of_edu_name":"서울특별시교육청","latitude":37.63034387,"longitude":127.0544999},
{"school_id":"B000011929","school_name":"배문고등학교","school_classification":"고등학교","operational_status":"운영","office_of_edu_code":7010000,"office_of_edu_name":"서울특별시교육청","latitude":37.5499978,"longitude":126.9639041},
{"school_id":"B000011356","school_name":"대진디자인고등학교","school_classification":"고등학교","operational_status":"운영","office_of_edu_code":7010000,"office_of_edu_name":"서울특별시교육청","latitude":37.49042815,"longitude":127.0959793},
{"school_id":"B000013476","school_name":"고척고등학교","school_classification":"고등학교","operational_status":"운영","office_of_edu_code":7010000,"office_of_edu_name":"서울특별시교육청","latitude":37.50804938,"longitude":126.8498691},
{"school_id":"B000022765","school_name":"경복비즈니스고등학교","school_classification":"고등학교","operational_status":"운영","office_of_edu_code":7010000,"office_of_edu_name":"서울특별시교육청","latitude":37.5580254,"longitude":126.8526703},
{"school_id":"B000013473","school_name":"한가람고등학교","school_classification":"고등학교","operational_status":"운영","office_of_edu_code":7010000,"office_of_edu_name":"서울특별시교육청","latitude":37.53746204,"longitude":126.8840075},
{"school_id":"B000012044","school_name":"인헌고등학교","school_classification":"고등학교","operational_status":"운영","office_of_edu_code":7010000,"office_of_edu_name":"서울특별시교육청","latitude":37.47231073,"longitude":126.9704851},
{"school_id":"B000012023","school_name":"경인고등학교","school_classification":"고등학교","operational_status":"운영","office_of_edu_code":7010000,"office_of_edu_name":"서울특별시교육청","latitude":37.49599268,"longitude":126.8654289},
{"school_id":"B000011357","school_name":"송파공업고등학교","school_classification":"고등학교","operational_status":"운영","office_of_edu_code":7010000,"office_of_edu_name":"서울특별시교육청","latitude":37.49179274,"longitude":127.1423309},
{"school_id":"B000013481","school_name":"경문고등학교","school_classification":"고등학교","operational_status":"운영","office_of_edu_code":7010000,"office_of_edu_name":"서울특별시교육청","latitude":37.49341886,"longitude":126.9822734},
{"school_id":"B000011306","school_name":"정화여자상업고등학교","school_classification":"고등학교","operational_status":"운영","office_of_edu_code":7010000,"office_of_edu_name":"서울특별시교육청","latitude":37.58604864,"longitude":127.0410703},
{"school_id":"B000011305","school_name":"해성국제컨벤션고등학교","school_classification":"고등학교","operational_status":"운영","office_of_edu_code":7010000,"office_of_edu_name":"서울특별시교육청","latitude":37.5818726,"longitude":127.0569769},
{"school_id":"B000012054","school_name":"양재고등학교","school_classification":"고등학교","operational_status":"운영","office_of_edu_code":7010000,"office_of_edu_name":"서울특별시교육청","latitude":37.48242164,"longitude":127.0320796},
{"school_id":"B000012012","school_name":"대일고등학교","school_classification":"고등학교","operational_status":"운영","office_of_edu_code":7010000,"office_of_edu_name":"서울특별시교육청","latitude":37.5394887,"longitude":126.8634031},
{"school_id":"B000012059","school_name":"동덕여자고등학교","school_classification":"고등학교","operational_status":"운영","office_of_edu_code":7010000,"office_of_edu_name":"서울특별시교육청","latitude":37.4758367,"longitude":126.991995},
{"school_id":"B000012029","school_name":"문일고등학교","school_classification":"고등학교","operational_status":"운영","office_of_edu_code":7010000,"office_of_edu_name":"서울특별시교육청","latitude":37.44891526,"longitude":126.8987207},
{"school_id":"B000012039","school_name":"동작고등학교","school_classification":"고등학교","operational_status":"운영","office_of_edu_code":7010000,"office_of_edu_name":"서울특별시교육청","latitude":37.48260194,"longitude":126.9650863},
{"school_id":"B000012062","school_name":"개포고등학교","school_classification":"고등학교","operational_status":"운영","office_of_edu_code":7010000,"office_of_edu_name":"서울특별시교육청","latitude":37.4849529,"longitude":127.0594065},
{"school_id":"B000013455","school_name":"경희고등학교","school_classification":"고등학교","operational_status":"운영","office_of_edu_code":7010000,"office_of_edu_name":"서울특별시교육청","latitude":37.59394914,"longitude":127.054891},
{"school_id":"B000011945","school_name":"휘경여자고등학교","school_classification":"고등학교","operational_status":"운영","office_of_edu_code":7010000,"office_of_edu_name":"서울특별시교육청","latitude":37.58190052,"longitude":127.0674341},
{"school_id":"B000011789","school_name":"서울과학고등학교","school_classification":"고등학교","operational_status":"운영","office_of_edu_code":7010000,"office_of_edu_name":"서울특별시교육청","latitude":37.59154805,"longitude":126.9984363},
{"school_id":"B000012078","school_name":"가락고등학교","school_classification":"고등학교","operational_status":"운영","office_of_edu_code":7010000,"office_of_edu_name":"서울특별시교육청","latitude":37.50107579,"longitude":127.1164258},
{"school_id":"B000013448","school_name":"성동고등학교","school_classification":"고등학교","operational_status":"운영","office_of_edu_code":7010000,"office_of_edu_name":"서울특별시교육청","latitude":37.5641164,"longitude":127.0223892},
{"school_id":"B000012049","school_name":"서울미술고등학교","school_classification":"고등학교","operational_status":"운영","office_of_edu_code":7010000,"office_of_edu_name":"서울특별시교육청","latitude":37.47669631,"longitude":126.9667485},
{"school_id":"B000012043","school_name":"신림고등학교","school_classification":"고등학교","operational_status":"운영","office_of_edu_code":7010000,"office_of_edu_name":"서울특별시교육청","latitude":37.47921049,"longitude":126.9169672},
{"school_id":"B000011953","school_name":"석관고등학교","school_classification":"고등학교","operational_status":"운영","office_of_edu_code":7010000,"office_of_edu_name":"서울특별시교육청","latitude":37.60958929,"longitude":127.0667176},
{"school_id":"B000013474","school_name":"등촌고등학교","school_classification":"고등학교","operational_status":"운영","office_of_edu_code":7010000,"office_of_edu_name":"서울특별시교육청","latitude":37.56294522,"longitude":126.8450461},
{"school_id":"B000011350","school_name":"광신방송예술고등학교","school_classification":"고등학교","operational_status":"운영","office_of_edu_code":7010000,"office_of_edu_name":"서울특별시교육청","latitude":37.4644762,"longitude":126.9259406},
{"school_id":"B000011952","school_name":"서울대학교사범대학부설고등학교","school_classification":"고등학교","operational_status":"운영","office_of_edu_code":7010000,"office_of_edu_name":"서울특별시교육청","latitude":37.59472384,"longitude":127.0381204},
{"school_id":"B000011988","school_name":"동명여자고등학교","school_classification":"고등학교","operational_status":"운영","office_of_edu_code":7010000,"office_of_edu_name":"서울특별시교육청","latitude":37.61441879,"longitude":126.9228204},
{"school_id":"B000011978","school_name":"용화여자고등학교","school_classification":"고등학교","operational_status":"운영","office_of_edu_code":7010000,"office_of_edu_name":"서울특별시교육청","latitude":37.65913138,"longitude":127.0582807},
{"school_id":"B000012005","school_name":"진명여자고등학교","school_classification":"고등학교","operational_status":"운영","office_of_edu_code":7010000,"office_of_edu_name":"서울특별시교육청","latitude":37.52404701,"longitude":126.8658566},
{"school_id":"B000012027","school_name":"오류고등학교","school_classification":"고등학교","operational_status":"운영","office_of_edu_code":7010000,"office_of_edu_name":"서울특별시교육청","latitude":37.50035507,"longitude":126.827683},
{"school_id":"B000011944","school_name":"경희여자고등학교","school_classification":"고등학교","operational_status":"운영","office_of_edu_code":7010000,"office_of_edu_name":"서울특별시교육청","latitude":37.59394914,"longitude":127.054891},
{"school_id":"B000013482","school_name":"당곡고등학교","school_classification":"고등학교","operational_status":"운영","office_of_edu_code":7010000,"office_of_edu_name":"서울특별시교육청","latitude":37.49176034,"longitude":126.9342464},
{"school_id":"B000011949","school_name":"송곡고등학교","school_classification":"고등학교","operational_status":"운영","office_of_edu_code":7010000,"office_of_edu_name":"서울특별시교육청","latitude":37.60584544,"longitude":127.1064637},
{"school_id":"B000011948","school_name":"중화고등학교","school_classification":"고등학교","operational_status":"운영","office_of_edu_code":7010000,"office_of_edu_name":"서울특별시교육청","latitude":37.60481461,"longitude":127.0836541},
{"school_id":"B000011943","school_name":"해성여자고등학교","school_classification":"고등학교","operational_status":"운영","office_of_edu_code":7010000,"office_of_edu_name":"서울특별시교육청","latitude":37.5818726,"longitude":127.0569769},
{"school_id":"B000012019","school_name":"덕원여자고등학교","school_classification":"고등학교","operational_status":"운영","office_of_edu_code":7010000,"office_of_edu_name":"서울특별시교육청","latitude":37.54862258,"longitude":126.8290245},
{"school_id":"B000011803","school_name":"미림여자정보과학고등학교","school_classification":"고등학교","operational_status":"운영","office_of_edu_code":7010000,"office_of_edu_name":"서울특별시교육청","latitude":37.4661018,"longitude":126.9319279},
{"school_id":"B000011927","school_name":"용산고등학교","school_classification":"고등학교","operational_status":"운영","office_of_edu_code":7010000,"office_of_edu_name":"서울특별시교육청","latitude":37.54586738,"longitude":126.9803277},
{"school_id":"B000012036","school_name":"선유고등학교","school_classification":"고등학교","operational_status":"운영","office_of_edu_code":7010000,"office_of_edu_name":"서울특별시교육청","latitude":37.53390162,"longitude":126.8948507},
{"school_id":"B000013486","school_name":"휘문고등학교","school_classification":"고등학교","operational_status":"운영","office_of_edu_code":7010000,"office_of_edu_name":"서울특별시교육청","latitude":37.50528945,"longitude":127.0619939},
{"school_id":"B000012020","school_name":"명덕여자고등학교","school_classification":"고등학교","operational_status":"운영","office_of_edu_code":7010000,"office_of_edu_name":"서울특별시교육청","latitude":37.55394399,"longitude":126.8342914},
{"school_id":"B000012063","school_name":"압구정고등학교","school_classification":"고등학교","operational_status":"운영","office_of_edu_code":7010000,"office_of_edu_name":"서울특별시교육청","latitude":37.53113395,"longitude":127.0327116},
{"school_id":"B000011806","school_name":"서울체육고등학교","school_classification":"고등학교","operational_status":"운영","office_of_edu_code":7010000,"office_of_edu_name":"서울특별시교육청","latitude":37.52233038,"longitude":127.1298226},
{"school_id":"B000012083","school_name":"배명고등학교","school_classification":"고등학교","operational_status":"운영","office_of_edu_code":7010000,"office_of_edu_name":"서울특별시교육청","latitude":37.4976895,"longitude":127.0958118},
{"school_id":"B000011310","school_name":"동구마케팅고등학교","school_classification":"고등학교","operational_status":"운영","office_of_edu_code":7010000,"office_of_edu_name":"서울특별시교육청","latitude":37.59410587,"longitude":127.0082153},
{"school_id":"B000012060","school_name":"경기고등학교","school_classification":"고등학교","operational_status":"운영","office_of_edu_code":7010000,"office_of_edu_name":"서울특별시교육청","latitude":37.51756454,"longitude":127.0560755},
{"school_id":"B000011999","school_name":"금옥여자고등학교","school_classification":"고등학교","operational_status":"운영","office_of_edu_code":7010000,"office_of_edu_name":"서울특별시교육청","latitude":37.51096532,"longitude":126.8439717},
{"school_id":"B000011799","school_name":"덕원예술고등학교","school_classification":"고등학교","operational_status":"운영","office_of_edu_code":7010000,"office_of_edu_name":"서울특별시교육청","latitude":37.54862258,"longitude":126.8290245},
{"school_id":"B000012064","school_name":"청담고등학교","school_classification":"고등학교","operational_status":"운영","office_of_edu_code":7010000,"office_of_edu_name":"서울특별시교육청","latitude":37.52800302,"longitude":127.0437002},
{"school_id":"B000011321","school_name":"동산정보산업고등학교","school_classification":"고등학교","operational_status":"운영","office_of_edu_code":7010000,"office_of_edu_name":"서울특별시교육청","latitude":37.63077798,"longitude":127.0739984},
{"school_id":"B000012024","school_name":"구로고등학교","school_classification":"고등학교","operational_status":"운영","office_of_edu_code":7010000,"office_of_edu_name":"서울특별시교육청","latitude":37.49884008,"longitude":126.8903092},
{"school_id":"B000011351","school_name":"서울관광고등학교","school_classification":"고등학교","operational_status":"운영","office_of_edu_code":7010000,"office_of_edu_name":"서울특별시교육청","latitude":37.48781542,"longitude":126.9437608},
{"school_id":"B000012066","school_name":"중산고등학교","school_classification":"고등학교","operational_status":"운영","office_of_edu_code":7010000,"office_of_edu_name":"서울특별시교육청","latitude":37.48574293,"longitude":127.0814285},
{"school_id":"B000012082","school_name":"보성고등학교","school_classification":"고등학교","operational_status":"운영","office_of_edu_code":7010000,"office_of_edu_name":"서울특별시교육청","latitude":37.52008989,"longitude":127.1357293},
{"school_id":"B000011941","school_name":"휘봉고등학교","school_classification":"고등학교","operational_status":"운영","office_of_edu_code":7010000,"office_of_edu_name":"서울특별시교육청","latitude":37.5864773,"longitude":127.068852},
{"school_id":"B000011343","school_name":"덕일전자공업고등학교","school_classification":"고등학교","operational_status":"운영","office_of_edu_code":7010000,"office_of_edu_name":"서울특별시교육청","latitude":37.49053652,"longitude":126.8371091},
{"school_id":"B000011954","school_name":"홍익대학교사범대학부속고등학교","school_classification":"고등학교","operational_status":"운영","office_of_edu_code":7010000,"office_of_edu_name":"서울특별시교육청","latitude":37.59366662,"longitude":127.002805},
{"school_id":"B000011290","school_name":"서일문화예술고등학교","school_classification":"고등학교","operational_status":"운영","office_of_edu_code":7010000,"office_of_edu_name":"서울특별시교육청","latitude":37.57937936,"longitude":127.0127598},
{"school_id":"B000012079","school_name":"오금고등학교","school_classification":"고등학교","operational_status":"운영","office_of_edu_code":7010000,"office_of_edu_name":"서울특별시교육청","latitude":37.50453217,"longitude":127.128969},
{"school_id":"B000011940","school_name":"건국대학교사범대학부속고등학교","school_classification":"고등학교","operational_status":"운영","office_of_edu_code":7010000,"office_of_edu_name":"서울특별시교육청","latitude":37.53918267,"longitude":127.0747119},
{"school_id":"B000011358","school_name":"일신여자상업고등학교","school_classification":"고등학교","operational_status":"운영","office_of_edu_code":7010000,"office_of_edu_name":"서울특별시교육청","latitude":37.50179413,"longitude":127.1142413},
{"school_id":"B000011347","school_name":"한강미디어고등학교","school_classification":"고등학교","operational_status":"운영","office_of_edu_code":7010000,"office_of_edu_name":"서울특별시교육청","latitude":37.53929145,"longitude":126.8972599},
{"school_id":"B000011986","school_name":"충암고등학교","school_classification":"고등학교","operational_status":"운영","office_of_edu_code":7010000,"office_of_edu_name":"서울특별시교육청","latitude":37.58464029,"longitude":126.9218095},
{"school_id":"B000011327","school_name":"동명생활경영고등학교","school_classification":"고등학교","operational_status":"운영","office_of_edu_code":7010000,"office_of_edu_name":"서울특별시교육청","latitude":37.61441879,"longitude":126.9228204},
{"school_id":"B000011292","school_name":"성동글로벌경영고등학교","school_classification":"고등학교","operational_status":"운영","office_of_edu_code":7010000,"office_of_edu_name":"서울특별시교육청","latitude":37.56585472,"longitude":127.0135246},
{"school_id":"B000013488","school_name":"현대고등학교","school_classification":"고등학교","operational_status":"운영","office_of_edu_code":7010000,"office_of_edu_name":"서울특별시교육청","latitude":37.5254805,"longitude":127.0223773},
{"school_id":"B000011970","school_name":"월계고등학교","school_classification":"고등학교","operational_status":"운영","office_of_edu_code":7010000,"office_of_edu_name":"서울특별시교육청","latitude":37.63173301,"longitude":127.0487159},
{"school_id":"B000013487","school_name":"중동고등학교","school_classification":"고등학교","operational_status":"운영","office_of_edu_code":7010000,"office_of_edu_name":"서울특별시교육청","latitude":37.49371459,"longitude":127.0809122},
{"school_id":"B000012004","school_name":"양천고등학교","school_classification":"고등학교","operational_status":"운영","office_of_edu_code":7010000,"office_of_edu_name":"서울특별시교육청","latitude":37.5083206,"longitude":126.8452028},
{"school_id":"B000012084","school_name":"잠실여자고등학교","school_classification":"고등학교","operational_status":"운영","office_of_edu_code":7010000,"office_of_edu_name":"서울특별시교육청","latitude":37.50179413,"longitude":127.1142413},
{"school_id":"B000013468","school_name":"이화여자대학교사범대학부속이화금란고등학교","school_classification":"고등학교","operational_status":"운영","office_of_edu_code":7010000,"office_of_edu_name":"서울특별시교육청","latitude":37.56638886,"longitude":126.9473028},
{"school_id":"B000012040","school_name":"성남고등학교","school_classification":"고등학교","operational_status":"운영","office_of_edu_code":7010000,"office_of_edu_name":"서울특별시교육청","latitude":37.50528157,"longitude":126.9266153},
{"school_id":"B000012072","school_name":"중앙대학교사범대학부속고등학교","school_classification":"고등학교","operational_status":"운영","office_of_edu_code":7010000,"office_of_edu_name":"서울특별시교육청","latitude":37.4919059,"longitude":127.0521116},
{"school_id":"B000011987","school_name":"숭실고등학교","school_classification":"고등학교","operational_status":"운영","office_of_edu_code":7010000,"office_of_edu_name":"서울특별시교육청","latitude":37.59327482,"longitude":126.9024039},
{"school_id":"B000011797","school_name":"한성과학고등학교","school_classification":"고등학교","operational_status":"운영","office_of_edu_code":7010000,"office_of_edu_name":"서울특별시교육청","latitude":37.57543617,"longitude":126.9523709},
{"school_id":"B000011936","school_name":"자양고등학교","school_classification":"고등학교","operational_status":"운영","office_of_edu_code":7010000,"office_of_edu_name":"서울특별시교육청","latitude":37.53607797,"longitude":127.0733395},
{"school_id":"B000012002","school_name":"강서고등학교","school_classification":"고등학교","operational_status":"운영","office_of_edu_code":7010000,"office_of_edu_name":"서울특별시교육청","latitude":37.53631557,"longitude":126.8657711},
{"school_id":"B000012081","school_name":"문현고등학교","school_classification":"고등학교","operational_status":"운영","office_of_edu_code":7010000,"office_of_edu_name":"서울특별시교육청","latitude":37.48131355,"longitude":127.1287623},
{"school_id":"B000013459","school_name":"경동고등학교","school_classification":"고등학교","operational_status":"운영","office_of_edu_code":7010000,"office_of_edu_name":"서울특별시교육청","latitude":37.58660133,"longitude":127.0160317},
{"school_id":"B000012075","school_name":"창덕여자고등학교","school_classification":"고등학교","operational_status":"운영","office_of_edu_code":7010000,"office_of_edu_name":"서울특별시교육청","latitude":37.51624351,"longitude":127.1402736},
{"school_id":"B000011301","school_name":"덕수고등학교","school_classification":"고등학교","operational_status":"운영","office_of_edu_code":7010000,"office_of_edu_name":"서울특별시교육청","latitude":37.55526422,"longitude":127.0411418},
{"school_id":"B000012046","school_name":"남강고등학교","school_classification":"고등학교","operational_status":"운영","office_of_edu_code":7010000,"office_of_edu_name":"서울특별시교육청","latitude":37.47137567,"longitude":126.9249091},
{"school_id":"B000012053","school_name":"반포고등학교","school_classification":"고등학교","operational_status":"운영","office_of_edu_code":7010000,"office_of_edu_name":"서울특별시교육청","latitude":37.50270273,"longitude":127.0165603},
{"school_id":"B000011955","school_name":"고려대학교사범대학부속고등학교","school_classification":"고등학교","operational_status":"운영","office_of_edu_code":7010000,"office_of_edu_name":"서울특별시교육청","latitude":37.60783857,"longitude":127.0028302},
{"school_id":"B000011336","school_name":"강서공업고등학교","school_classification":"고등학교","operational_status":"운영","office_of_edu_code":7010000,"office_of_edu_name":"서울특별시교육청","latitude":37.57603409,"longitude":126.8161817},
{"school_id":"B000011317","school_name":"광운전자공업고등학교","school_classification":"고등학교","operational_status":"운영","office_of_edu_code":7010000,"office_of_edu_name":"서울특별시교육청","latitude":37.61923977,"longitude":127.0565452},
{"school_id":"B000011804","school_name":"국립국악고등학교","school_classification":"고등학교","operational_status":"운영","office_of_edu_code":7010000,"office_of_edu_name":"서울특별시교육청","latitude":37.4762308,"longitude":127.0514732},
{"school_id":"B000011980","school_name":"한국삼육고등학교","school_classification":"고등학교","operational_status":"운영","office_of_edu_code":7010000,"office_of_edu_name":"서울특별시교육청","latitude":37.64335737,"longitude":127.1088503},
{"school_id":"B000012000","school_name":"신목고등학교","school_classification":"고등학교","operational_status":"운영","office_of_edu_code":7010000,"office_of_edu_name":"서울특별시교육청","latitude":37.51290943,"longitude":126.8736069},
{"school_id":"B000011303","school_name":"서울방송고등학교","school_classification":"고등학교","operational_status":"운영","office_of_edu_code":7010000,"office_of_edu_name":"서울특별시교육청","latitude":37.54777448,"longitude":127.0110373},
{"school_id":"B000012017","school_name":"영일고등학교","school_classification":"고등학교","operational_status":"운영","office_of_edu_code":7010000,"office_of_edu_name":"서울특별시교육청","latitude":37.54728726,"longitude":126.8620589},
{"school_id":"B000013449","school_name":"이화여자고등학교","school_classification":"고등학교","operational_status":"운영","office_of_edu_code":7010000,"office_of_edu_name":"서울특별시교육청","latitude":37.56617664,"longitude":126.9713244},
{"school_id":"B000013483","school_name":"미림여자고등학교","school_classification":"고등학교","operational_status":"운영","office_of_edu_code":7010000,"office_of_edu_name":"서울특별시교육청","latitude":37.4661018,"longitude":126.9319279},
{"school_id":"B000012016","school_name":"동양고등학교","school_classification":"고등학교","operational_status":"운영","office_of_edu_code":7010000,"office_of_edu_name":"서울특별시교육청","latitude":37.56901968,"longitude":126.8470811},
{"school_id":"B000011330","school_name":"세명컴퓨터고등학교","school_classification":"고등학교","operational_status":"운영","office_of_edu_code":7010000,"office_of_edu_name":"서울특별시교육청","latitude":37.6277708,"longitude":126.9232499},
{"school_id":"B000011314","school_name":"서울문화고등학교","school_classification":"고등학교","operational_status":"운영","office_of_edu_code":7010000,"office_of_edu_name":"서울특별시교육청","latitude":37.66413143,"longitude":127.0472858},
{"school_id":"B000012006","school_name":"목동고등학교","school_classification":"고등학교","operational_status":"운영","office_of_edu_code":7010000,"office_of_edu_name":"서울특별시교육청","latitude":37.50921598,"longitude":126.860143},
{"school_id":"B000011972","school_name":"서라벌고등학교","school_classification":"고등학교","operational_status":"운영","office_of_edu_code":7010000,"office_of_edu_name":"서울특별시교육청","latitude":37.64525653,"longitude":127.0758406},
{"school_id":"B000011795","school_name":"대일외국어고등학교","school_classification":"고등학교","operational_status":"운영","office_of_edu_code":7010000,"office_of_edu_name":"서울특별시교육청","latitude":37.61330459,"longitude":127.014176},
{"school_id":"B000011996","school_name":"광성고등학교","school_classification":"고등학교","operational_status":"운영","office_of_edu_code":7010000,"office_of_edu_name":"서울특별시교육청","latitude":37.54869756,"longitude":126.9359696},
{"school_id":"B000011950","school_name":"송곡여자고등학교","school_classification":"고등학교","operational_status":"운영","office_of_edu_code":7010000,"office_of_edu_name":"서울특별시교육청","latitude":37.60668904,"longitude":127.1051455},
{"school_id":"B000012050","school_name":"광신고등학교","school_classification":"고등학교","operational_status":"운영","office_of_edu_code":7010000,"office_of_edu_name":"서울특별시교육청","latitude":37.4644762,"longitude":126.9259406},
{"school_id":"B000011318","school_name":"영신간호비즈니스고등학교","school_classification":"고등학교","operational_status":"운영","office_of_edu_code":7010000,"office_of_edu_name":"서울특별시교육청","latitude":37.65245208,"longitude":127.083205},
{"school_id":"B000013478","school_name":"금천고등학교","school_classification":"고등학교","operational_status":"운영","office_of_edu_code":7010000,"office_of_edu_name":"서울특별시교육청","latitude":37.4448067,"longitude":126.9049018},
{"school_id":"B000011296","school_name":"리라아트고등학교","school_classification":"고등학교","operational_status":"운영","office_of_edu_code":7010000,"office_of_edu_name":"서울특별시교육청","latitude":37.5571155,"longitude":126.988252},
{"school_id":"B000011994","school_name":"중앙여자고등학교","school_classification":"고등학교","operational_status":"운영","office_of_edu_code":7010000,"office_of_edu_name":"서울특별시교육청","latitude":37.56317672,"longitude":126.9540593},
{"school_id":"B000011313","school_name":"성암국제무역고등학교","school_classification":"고등학교","operational_status":"운영","office_of_edu_code":7010000,"office_of_edu_name":"서울특별시교육청","latitude":37.62041353,"longitude":127.0239059},
{"school_id":"B000011991","school_name":"선정고등학교","school_classification":"고등학교","operational_status":"운영","office_of_edu_code":7010000,"office_of_edu_name":"서울특별시교육청","latitude":37.61870451,"longitude":126.9090316},
{"school_id":"B000013471","school_name":"숭문고등학교","school_classification":"고등학교","operational_status":"운영","office_of_edu_code":7010000,"office_of_edu_name":"서울특별시교육청","latitude":37.5508727,"longitude":126.9457596},
{"school_id":"B000012034","school_name":"관악고등학교","school_classification":"고등학교","operational_status":"운영","office_of_edu_code":7010000,"office_of_edu_name":"서울특별시교육청","latitude":37.52179166,"longitude":126.8829505},
{"school_id":"B000011294","school_name":"한양공업고등학교","school_classification":"고등학교","operational_status":"운영","office_of_edu_code":7010000,"office_of_edu_name":"서울특별시교육청","latitude":37.5658716,"longitude":127.0114433},
{"school_id":"B000011344","school_name":"유한공업고등학교","school_classification":"고등학교","operational_status":"운영","office_of_edu_code":7010000,"office_of_edu_name":"서울특별시교육청","latitude":37.4879142,"longitude":126.8232907},
{"school_id":"B000011796","school_name":"서울외국어고등학교","school_classification":"고등학교","operational_status":"운영","office_of_edu_code":7010000,"office_of_edu_name":"서울특별시교육청","latitude":37.64578079,"longitude":127.0515087},
{"school_id":"B000011353","school_name":"서울전자고등학교","school_classification":"고등학교","operational_status":"운영","office_of_edu_code":7010000,"office_of_edu_name":"서울특별시교육청","latitude":37.46972182,"longitude":126.9883284},
{"school_id":"B000011960","school_name":"창문여자고등학교","school_classification":"고등학교","operational_status":"운영","office_of_edu_code":7010000,"office_of_edu_name":"서울특별시교육청","latitude":37.6134057,"longitude":127.0357962},
{"school_id":"B000013485","school_name":"세화여자고등학교","school_classification":"고등학교","operational_status":"운영","office_of_edu_code":7010000,"office_of_edu_name":"서울특별시교육청","latitude":37.50199646,"longitude":126.99423},
{"school_id":"B000011918","school_name":"대신고등학교","school_classification":"고등학교","operational_status":"운영","office_of_edu_code":7010000,"office_of_edu_name":"서울특별시교육청","latitude":37.57312377,"longitude":126.9612545},
{"school_id":"B000011957","school_name":"성신여자고등학교","school_classification":"고등학교","operational_status":"운영","office_of_edu_code":7010000,"office_of_edu_name":"서울특별시교육청","latitude":37.59428963,"longitude":127.0224072},
{"school_id":"B000011977","school_name":"혜성여자고등학교","school_classification":"고등학교","operational_status":"운영","office_of_edu_code":7010000,"office_of_edu_name":"서울특별시교육청","latitude":37.64055021,"longitude":127.0736197},
{"school_id":"B000011348","school_name":"서울공업고등학교","school_classification":"고등학교","operational_status":"운영","office_of_edu_code":7010000,"office_of_edu_name":"서울특별시교육청","latitude":37.50190126,"longitude":126.9223834},
{"school_id":"B000011984","school_name":"진관고등학교","school_classification":"고등학교","operational_status":"운영","office_of_edu_code":7010000,"office_of_edu_name":"서울특별시교육청","latitude":37.64333857,"longitude":126.9243825},
{"school_id":"B000011985","school_name":"은평고등학교","school_classification":"고등학교","operational_status":"운영","office_of_edu_code":7010000,"office_of_edu_name":"서울특별시교육청","latitude":37.60984462,"longitude":126.9057368},
{"school_id":"B000011791","school_name":"서울예술고등학교","school_classification":"고등학교","operational_status":"운영","office_of_edu_code":7010000,"office_of_edu_name":"서울특별시교육청","latitude":37.60575682,"longitude":126.9678907},
{"school_id":"B000012070","school_name":"진선여자고등학교","school_classification":"고등학교","operational_status":"운영","office_of_edu_code":7010000,"office_of_edu_name":"서울특별시교육청","latitude":37.50230289,"longitude":127.0482866},
{"school_id":"B000013467","school_name":"하나고등학교","school_classification":"고등학교","operational_status":"운영","office_of_edu_code":7010000,"office_of_edu_name":"서울특별시교육청","latitude":37.64163759,"longitude":126.9369302},
{"school_id":"B000011965","school_name":"창동고등학교","school_classification":"고등학교","operational_status":"운영","office_of_edu_code":7010000,"office_of_edu_name":"서울특별시교육청","latitude":37.65103577,"longitude":127.0388191},
{"school_id":"B000011951","school_name":"혜원여자고등학교","school_classification":"고등학교","operational_status":"운영","office_of_edu_code":7010000,"office_of_edu_name":"서울특별시교육청","latitude":37.59327987,"longitude":127.0970427},
{"school_id":"B000011793","school_name":"대원외국어고등학교","school_classification":"고등학교","operational_status":"운영","office_of_edu_code":7010000,"office_of_edu_name":"서울특별시교육청","latitude":37.56249279,"longitude":127.0894374},
{"school_id":"B000012058","school_name":"서문여자고등학교","school_classification":"고등학교","operational_status":"운영","office_of_edu_code":7010000,"office_of_edu_name":"서울특별시교육청","latitude":37.48891973,"longitude":126.9845458},
{"school_id":"B000012080","school_name":"잠신고등학교","school_classification":"고등학교","operational_status":"운영","office_of_edu_code":7010000,"office_of_edu_name":"서울특별시교육청","latitude":37.51470129,"longitude":127.088283},
{"school_id":"B000012061","school_name":"경기여자고등학교","school_classification":"고등학교","operational_status":"운영","office_of_edu_code":7010000,"office_of_edu_name":"서울특별시교육청","latitude":37.48691516,"longitude":127.065453},
{"school_id":"B000011332","school_name":"한세사이버보안고등학교","school_classification":"고등학교","operational_status":"운영","office_of_edu_code":7010000,"office_of_edu_name":"서울특별시교육청","latitude":37.5517898,"longitude":126.9520321},
{"school_id":"B000011801","school_name":"서울공연예술고등학교","school_classification":"고등학교","operational_status":"운영","office_of_edu_code":7010000,"office_of_edu_name":"서울특별시교육청","latitude":37.49993066,"longitude":126.8326087},
{"school_id":"B000011928","school_name":"오산고등학교","school_classification":"고등학교","operational_status":"운영","office_of_edu_code":7010000,"office_of_edu_name":"서울특별시교육청","latitude":37.5235053,"longitude":127.0008872},
{"school_id":"B000012077","school_name":"문정고등학교","school_classification":"고등학교","operational_status":"운영","office_of_edu_code":7010000,"office_of_edu_name":"서울특별시교육청","latitude":37.4851785,"longitude":127.1266921},
{"school_id":"B000012086","school_name":"영파여자고등학교","school_classification":"고등학교","operational_status":"운영","office_of_edu_code":7010000,"office_of_edu_name":"서울특별시교육청","latitude":37.53273562,"longitude":127.1197395},
{"school_id":"B000011993","school_name":"한성고등학교","school_classification":"고등학교","operational_status":"운영","office_of_edu_code":7010000,"office_of_edu_name":"서울특별시교육청","latitude":37.55909644,"longitude":126.9544615},
{"school_id":"B000011322","school_name":"미래산업과학고등학교","school_classification":"고등학교","operational_status":"운영","office_of_edu_code":7010000,"office_of_edu_name":"서울특별시교육청","latitude":37.65877948,"longitude":127.0784407},
{"school_id":"B000012074","school_name":"잠실고등학교","school_classification":"고등학교","operational_status":"운영","office_of_edu_code":7010000,"office_of_edu_name":"서울특별시교육청","latitude":37.52293043,"longitude":127.106515},
{"school_id":"B000011976","school_name":"영신여자고등학교","school_classification":"고등학교","operational_status":"운영","office_of_edu_code":7010000,"office_of_edu_name":"서울특별시교육청","latitude":37.65245208,"longitude":127.0832893},
{"school_id":"B000011798","school_name":"명덕외국어고등학교","school_classification":"고등학교","operational_status":"운영","office_of_edu_code":7010000,"office_of_edu_name":"서울특별시교육청","latitude":37.55394399,"longitude":126.8342914},
{"school_id":"B000011961","school_name":"영훈고등학교","school_classification":"고등학교","operational_status":"운영","office_of_edu_code":7010000,"office_of_edu_name":"서울특별시교육청","latitude":37.61468187,"longitude":127.0280933},
{"school_id":"B000013470","school_name":"상암고등학교","school_classification":"고등학교","operational_status":"운영","office_of_edu_code":7010000,"office_of_edu_name":"서울특별시교육청","latitude":37.5813832,"longitude":126.8833945},
{"school_id":"B000013489","school_name":"보인고등학교","school_classification":"고등학교","operational_status":"운영","office_of_edu_code":7010000,"office_of_edu_name":"서울특별시교육청","latitude":37.4975692,"longitude":127.1395178},
{"school_id":"B000013472","school_name":"양정고등학교","school_classification":"고등학교","operational_status":"운영","office_of_edu_code":7010000,"office_of_edu_name":"서울특별시교육청","latitude":37.53539226,"longitude":126.8877343},
{"school_id":"B000012032","school_name":"영등포여자고등학교","school_classification":"고등학교","operational_status":"운영","office_of_edu_code":7010000,"office_of_edu_name":"서울특별시교육청","latitude":37.51538845,"longitude":126.9153563},
{"school_id":"B000012030","school_name":"동일여자고등학교","school_classification":"고등학교","operational_status":"운영","office_of_edu_code":7010000,"office_of_edu_name":"서울특별시교육청","latitude":37.45193626,"longitude":126.9158199},
{"school_id":"B000011925","school_name":"장충고등학교","school_classification":"고등학교","operational_status":"운영","office_of_edu_code":7010000,"office_of_edu_name":"서울특별시교육청","latitude":37.5535149,"longitude":127.006415},
{"school_id":"B000011973","school_name":"대진고등학교","school_classification":"고등학교","operational_status":"운영","office_of_edu_code":7010000,"office_of_edu_name":"서울특별시교육청","latitude":37.63780685,"longitude":127.07609},
{"school_id":"B000012071","school_name":"서울세종고등학교","school_classification":"고등학교","operational_status":"운영","office_of_edu_code":7010000,"office_of_edu_name":"서울특별시교육청","latitude":37.49038935,"longitude":127.1027968},
{"school_id":"B000011920","school_name":"배화여자고등학교","school_classification":"고등학교","operational_status":"운영","office_of_edu_code":7010000,"office_of_edu_name":"서울특별시교육청","latitude":37.57954401,"longitude":126.9672919},
{"school_id":"B000011325","school_name":"선일이비즈니스고등학교","school_classification":"고등학교","operational_status":"운영","office_of_edu_code":7010000,"office_of_edu_name":"서울특별시교육청","latitude":37.6203371,"longitude":126.9119931},
{"school_id":"B000011962","school_name":"누원고등학교","school_classification":"고등학교","operational_status":"운영","office_of_edu_code":7010000,"office_of_edu_name":"서울특별시교육청","latitude":37.68556896,"longitude":127.0499327},
{"school_id":"B000011966","school_name":"정의여자고등학교","school_classification":"고등학교","operational_status":"운영","office_of_edu_code":7010000,"office_of_edu_name":"서울특별시교육청","latitude":37.65335584,"longitude":127.0324273},
{"school_id":"B000011959","school_name":"삼각산고등학교","school_classification":"고등학교","operational_status":"운영","office_of_edu_code":7010000,"office_of_edu_name":"서울특별시교육청","latitude":37.61628573,"longitude":127.0201333},
{"school_id":"B000012052","school_name":"서울고등학교","school_classification":"고등학교","operational_status":"운영","office_of_edu_code":7010000,"office_of_edu_name":"서울특별시교육청","latitude":37.48429306,"longitude":127.0049019},
{"school_id":"B000013484","school_name":"세화고등학교","school_classification":"고등학교","operational_status":"운영","office_of_edu_code":7010000,"office_of_edu_name":"서울특별시교육청","latitude":37.50199646,"longitude":126.99423},
{"school_id":"B000013490","school_name":"배재고등학교","school_classification":"고등학교","operational_status":"운영","office_of_edu_code":7010000,"office_of_edu_name":"서울특별시교육청","latitude":37.55505939,"longitude":127.1502473},
{"school_id":"B000011339","school_name":"서울신정고등학교","school_classification":"고등학교","operational_status":"운영","office_of_edu_code":7010000,"office_of_edu_name":"서울특별시교육청","latitude":37.53838143,"longitude":126.8570622},
{"school_id":"B000012037","school_name":"영등포고등학교","school_classification":"고등학교","operational_status":"운영","office_of_edu_code":7010000,"office_of_edu_name":"서울특별시교육청","latitude":37.5080846,"longitude":126.9331435},
{"school_id":"B000011992","school_name":"인창고등학교","school_classification":"고등학교","operational_status":"운영","office_of_edu_code":7010000,"office_of_edu_name":"서울특별시교육청","latitude":37.56488513,"longitude":126.9640232},
{"school_id":"B000011307","school_name":"송곡관광고등학교","school_classification":"고등학교","operational_status":"운영","office_of_edu_code":7010000,"office_of_edu_name":"서울특별시교육청","latitude":37.60668904,"longitude":127.1051455},
{"school_id":"B000011958","school_name":"혜화여자고등학교","school_classification":"고등학교","operational_status":"운영","office_of_edu_code":7010000,"office_of_edu_name":"서울특별시교육청","latitude":37.63130842,"longitude":127.013212},
{"school_id":"B000013457","school_name":"면목고등학교","school_classification":"고등학교","operational_status":"운영","office_of_edu_code":7010000,"office_of_edu_name":"서울특별시교육청","latitude":37.58466341,"longitude":127.0972706},
{"school_id":"B000012056","school_name":"언남고등학교","school_classification":"고등학교","operational_status":"운영","office_of_edu_code":7010000,"office_of_edu_name":"서울특별시교육청","latitude":37.47233002,"longitude":127.0430052},
{"school_id":"B000011360","school_name":"서울컨벤션고등학교","school_classification":"고등학교","operational_status":"운영","office_of_edu_code":7010000,"office_of_edu_name":"서울특별시교육청","latitude":37.5592845,"longitude":127.1580303},
{"school_id":"B000012057","school_name":"상문고등학교","school_classification":"고등학교","operational_status":"운영","office_of_edu_code":7010000,"office_of_edu_name":"서울특별시교육청","latitude":37.47975543,"longitude":127.0039168},
{"school_id":"B000012035","school_name":"영신고등학교","school_classification":"고등학교","operational_status":"운영","office_of_edu_code":7010000,"office_of_edu_name":"서울특별시교육청","latitude":37.49810094,"longitude":126.909739},
{"school_id":"B000012042","school_name":"구암고등학교","school_classification":"고등학교","operational_status":"운영","office_of_edu_code":7010000,"office_of_edu_name":"서울특별시교육청","latitude":37.49244195,"longitude":126.949625},
{"school_id":"B000011346","school_name":"동일여자상업고등학교","school_classification":"고등학교","operational_status":"운영","office_of_edu_code":7010000,"office_of_edu_name":"서울특별시교육청","latitude":37.45193626,"longitude":126.9158199},
{"school_id":"B000011982","school_name":"상명고등학교","school_classification":"고등학교","operational_status":"운영","office_of_edu_code":7010000,"office_of_edu_name":"서울특별시교육청","latitude":37.64954781,"longitude":127.0680416},
{"school_id":"B000011338","school_name":"화곡보건경영고등학교","school_classification":"고등학교","operational_status":"운영","office_of_edu_code":7010000,"office_of_edu_name":"서울특별시교육청","latitude":37.5484056,"longitude":126.8326573},
{"school_id":"B000012013","school_name":"마포고등학교","school_classification":"고등학교","operational_status":"운영","office_of_edu_code":7010000,"office_of_edu_name":"서울특별시교육청","latitude":37.55998867,"longitude":126.8531334},
{"school_id":"B000011968","school_name":"불암고등학교","school_classification":"고등학교","operational_status":"운영","office_of_edu_code":7010000,"office_of_edu_name":"서울특별시교육청","latitude":37.64915853,"longitude":127.0803058},
{"school_id":"B000011794","school_name":"선화예술고등학교","school_classification":"고등학교","operational_status":"운영","office_of_edu_code":7010000,"office_of_edu_name":"서울특별시교육청","latitude":37.5509798,"longitude":127.0870952},
{"school_id":"B000011998","school_name":"홍익대학교사범대학부속여자고등학교","school_classification":"고등학교","operational_status":"운영","office_of_edu_code":7010000,"office_of_edu_name":"서울특별시교육청","latitude":37.55964474,"longitude":126.9132084},
{"school_id":"B000011947","school_name":"신현고등학교","school_classification":"고등학교","operational_status":"운영","office_of_edu_code":7010000,"office_of_edu_name":"서울특별시교육청","latitude":37.60524904,"longitude":127.0929499},
{"school_id":"B000011291","school_name":"대동세무고등학교","school_classification":"고등학교","operational_status":"운영","office_of_edu_code":7010000,"office_of_edu_name":"서울특별시교육청","latitude":37.58158273,"longitude":126.9879513},
{"school_id":"B000011323","school_name":"서울아이티고등학교","school_classification":"고등학교","operational_status":"운영","office_of_edu_code":7010000,"office_of_edu_name":"서울특별시교육청","latitude":37.64241844,"longitude":127.0624493},
{"school_id":"B000012010","school_name":"수명고등학교","school_classification":"고등학교","operational_status":"운영","office_of_edu_code":7010000,"office_of_edu_name":"서울특별시교육청","latitude":37.54976186,"longitude":126.8247662},
{"school_id":"B000011341","school_name":"영등포공업고등학교","school_classification":"고등학교","operational_status":"운영","office_of_edu_code":7010000,"office_of_edu_name":"서울특별시교육청","latitude":37.56983562,"longitude":126.8500283},
{"school_id":"B000012073","school_name":"잠일고등학교","school_classification":"고등학교","operational_status":"운영","office_of_edu_code":7010000,"office_of_edu_name":"서울특별시교육청","latitude":37.514521,"longitude":127.0825552},
{"school_id":"B000013460","school_name":"용문고등학교","school_classification":"고등학교","operational_status":"운영","office_of_edu_code":7010000,"office_of_edu_name":"서울특별시교육청","latitude":37.58869033,"longitude":127.0246608},
{"school_id":"B000011299","school_name":"선린인터넷고등학교","school_classification":"고등학교","operational_status":"운영","office_of_edu_code":7010000,"office_of_edu_name":"서울특별시교육청","latitude":37.5427814,"longitude":126.9660387},
{"school_id":"B000013452","school_name":"한양대학교사범대학부속고등학교","school_classification":"고등학교","operational_status":"운영","office_of_edu_code":7010000,"office_of_edu_name":"서울특별시교육청","latitude":37.56191884,"longitude":127.042324},
{"school_id":"B000011983","school_name":"신도고등학교","school_classification":"고등학교","operational_status":"운영","office_of_edu_code":7010000,"office_of_edu_name":"서울특별시교육청","latitude":37.62913251,"longitude":126.9187486},
{"school_id":"B000013463","school_name":"도봉고등학교","school_classification":"고등학교","operational_status":"운영","office_of_edu_code":7010000,"office_of_edu_name":"서울특별시교육청","latitude":37.68675501,"longitude":127.0425784},
{"school_id":"B000013466","school_name":"대성고등학교","school_classification":"고등학교","operational_status":"운영","office_of_edu_code":7010000,"office_of_edu_name":"서울특별시교육청","latitude":37.6231612,"longitude":126.9097907},
{"school_id":"B000011956","school_name":"한성여자고등학교","school_classification":"고등학교","operational_status":"운영","office_of_edu_code":7010000,"office_of_edu_name":"서울특별시교육청","latitude":37.5830649,"longitude":127.0117841},
{"school_id":"B000011800","school_name":"세종과학고등학교","school_classification":"고등학교","operational_status":"운영","office_of_edu_code":7010000,"office_of_edu_name":"서울특별시교육청","latitude":37.4975694,"longitude":126.8273517},
{"school_id":"B000011933","school_name":"무학여자고등학교","school_classification":"고등학교","operational_status":"운영","office_of_edu_code":7010000,"office_of_edu_name":"서울특별시교육청","latitude":37.55762633,"longitude":127.0338809},
{"school_id":"B000011790","school_name":"서울국제고등학교","school_classification":"고등학교","operational_status":"운영","office_of_edu_code":7010000,"office_of_edu_name":"서울특별시교육청","latitude":37.59179115,"longitude":126.9954907},
{"school_id":"B000012008","school_name":"백암고등학교","school_classification":"고등학교","operational_status":"운영","office_of_edu_code":7010000,"office_of_edu_name":"서울특별시교육청","latitude":37.51219626,"longitude":126.844377},
{"school_id":"B000013447","school_name":"중앙고등학교","school_classification":"고등학교","operational_status":"운영","office_of_edu_code":7010000,"office_of_edu_name":"서울특별시교육청","latitude":37.58378822,"longitude":126.9874726},
{"school_id":"B000011935","school_name":"광남고등학교","school_classification":"고등학교","operational_status":"운영","office_of_edu_code":7010000,"office_of_edu_name":"서울특별시교육청","latitude":37.54151472,"longitude":127.1012139},
{"school_id":"B000012068","school_name":"숙명여자고등학교","school_classification":"고등학교","operational_status":"운영","office_of_edu_code":7010000,"office_of_edu_name":"서울특별시교육청","latitude":37.49147536,"longitude":127.0526126},
{"school_id":"B000011937","school_name":"대원고등학교","school_classification":"고등학교","operational_status":"운영","office_of_edu_code":7010000,"office_of_edu_name":"서울특별시교육청","latitude":37.56249279,"longitude":127.0894374},
{"school_id":"B000012031","school_name":"여의도고등학교","school_classification":"고등학교","operational_status":"운영","office_of_edu_code":7010000,"office_of_edu_name":"서울특별시교육청","latitude":37.52505101,"longitude":126.9342192},
{"school_id":"B000013454","school_name":"청량고등학교","school_classification":"고등학교","operational_status":"운영","office_of_edu_code":7010000,"office_of_edu_name":"서울특별시교육청","latitude":37.588886,"longitude":127.051311},
{"school_id":"B000011963","school_name":"효문고등학교","school_classification":"고등학교","operational_status":"운영","office_of_edu_code":7010000,"office_of_edu_name":"서울특별시교육청","latitude":37.65269871,"longitude":127.0184005},
{"school_id":"B000011333","school_name":"서울디자인고등학교","school_classification":"고등학교","operational_status":"운영","office_of_edu_code":7010000,"office_of_edu_name":"서울특별시교육청","latitude":37.54670177,"longitude":126.9469053},
{"school_id":"B000011919","school_name":"경신고등학교","school_classification":"고등학교","operational_status":"운영","office_of_edu_code":7010000,"office_of_edu_name":"서울특별시교육청","latitude":37.5922258,"longitude":126.999531},
{"school_id":"B000012087","school_name":"영동일고등학교","school_classification":"고등학교","operational_status":"운영","office_of_edu_code":7010000,"office_of_edu_name":"서울특별시교육청","latitude":37.5100345,"longitude":127.089867},
{"school_id":"B000012018","school_name":"경복여자고등학교","school_classification":"고등학교","operational_status":"운영","office_of_edu_code":7010000,"office_of_edu_name":"서울특별시교육청","latitude":37.55782183,"longitude":126.8505957},
{"school_id":"B000011932","school_name":"성심여자고등학교","school_classification":"고등학교","operational_status":"운영","office_of_edu_code":7010000,"office_of_edu_name":"서울특별시교육청","latitude":37.53420937,"longitude":126.9545934},
{"school_id":"B000011807","school_name":"한영외국어고등학교","school_classification":"고등학교","operational_status":"운영","office_of_edu_code":7010000,"office_of_edu_name":"서울특별시교육청","latitude":37.54914056,"longitude":127.1577731},
{"school_id":"B000011917","school_name":"경복고등학교","school_classification":"고등학교","operational_status":"운영","office_of_edu_code":7010000,"office_of_edu_name":"서울특별시교육청","latitude":37.58594567,"longitude":126.9715109},
{"school_id":"B000011293","school_name":"성동공업고등학교","school_classification":"고등학교","operational_status":"운영","office_of_edu_code":7010000,"office_of_edu_name":"서울특별시교육청","latitude":37.56936315,"longitude":127.0172917},
{"school_id":"B000011990","school_name":"예일여자고등학교","school_classification":"고등학교","operational_status":"운영","office_of_edu_code":7010000,"office_of_edu_name":"서울특별시교육청","latitude":37.6109459,"longitude":126.9147928},
{"school_id":"B000011971","school_name":"청원고등학교","school_classification":"고등학교","operational_status":"운영","office_of_edu_code":7010000,"office_of_edu_name":"서울특별시교육청","latitude":37.66525155,"longitude":127.0625329},
{"school_id":"B000011939","school_name":"대원여자고등학교","school_classification":"고등학교","operational_status":"운영","office_of_edu_code":7010000,"office_of_edu_name":"서울특별시교육청","latitude":37.5624962,"longitude":127.0894052},
{"school_id":"B000013446","school_name":"동성고등학교","school_classification":"고등학교","operational_status":"운영","office_of_edu_code":7010000,"office_of_edu_name":"서울특별시교육청","latitude":37.58496996,"longitude":127.0030619},
{"school_id":"B000011316","school_name":"경기기계공업고등학교","school_classification":"고등학교","operational_status":"운영","office_of_edu_code":7010000,"office_of_edu_name":"서울특별시교육청","latitude":37.63224005,"longitude":127.0749285},
{"school_id":"B000011802","school_name":"국립전통예술고등학교","school_classification":"고등학교","operational_status":"운영","office_of_edu_code":7010000,"office_of_edu_name":"서울특별시교육청","latitude":37.4463701,"longitude":126.9064871},
{"school_id":"B000011975","school_name":"청원여자고등학교","school_classification":"고등학교","operational_status":"운영","office_of_edu_code":7010000,"office_of_edu_name":"서울특별시교육청","latitude":37.66525155,"longitude":127.0625329},
{"school_id":"B000011964","school_name":"자운고등학교","school_classification":"고등학교","operational_status":"운영","office_of_edu_code":7010000,"office_of_edu_name":"서울특별시교육청","latitude":37.6590207,"longitude":127.0506763},
{"school_id":"B000011997","school_name":"경성고등학교","school_classification":"고등학교","operational_status":"운영","office_of_edu_code":7010000,"office_of_edu_name":"서울특별시교육청","latitude":37.56351064,"longitude":126.9191663},
{"school_id":"B000012090","school_name":"강일고등학교","school_classification":"고등학교","operational_status":"운영","office_of_edu_code":7010000,"office_of_edu_name":"서울특별시교육청","latitude":37.5638281,"longitude":127.1779035},
{"school_id":"B000012038","school_name":"수도여자고등학교","school_classification":"고등학교","operational_status":"운영","office_of_edu_code":7010000,"office_of_edu_name":"서울특별시교육청","latitude":37.49280146,"longitude":126.9149071},
{"school_id":"B000011931","school_name":"신광여자고등학교","school_classification":"고등학교","operational_status":"운영","office_of_edu_code":7010000,"office_of_edu_name":"서울특별시교육청","latitude":37.54289988,"longitude":126.9694475},
{"school_id":"B000013461","school_name":"미양고등학교","school_classification":"고등학교","operational_status":"운영","office_of_edu_code":7010000,"office_of_edu_name":"서울특별시교육청","latitude":37.62366717,"longitude":127.0121354},
{"school_id":"B000011319","school_name":"염광여자메디텍고등학교","school_classification":"고등학교","operational_status":"운영","office_of_edu_code":7010000,"office_of_edu_name":"서울특별시교육청","latitude":37.63028445,"longitude":127.0492646},
{"school_id":"B000011308","school_name":"이화여자대학교병설미디어고등학교","school_classification":"고등학교","operational_status":"운영","office_of_edu_code":7010000,"office_of_edu_name":"서울특별시교육청","latitude":37.6031324,"longitude":127.1053324},
{"school_id":"B000012055","school_name":"서초고등학교","school_classification":"고등학교","operational_status":"운영","office_of_edu_code":7010000,"office_of_edu_name":"서울특별시교육청","latitude":37.48961169,"longitude":127.0053782},
{"school_id":"B000012088","school_name":"명일여자고등학교","school_classification":"고등학교","operational_status":"운영","office_of_edu_code":7010000,"office_of_edu_name":"서울특별시교육청","latitude":37.54977633,"longitude":127.1495815},
{"school_id":"B000012092","school_name":"동북고등학교","school_classification":"고등학교","operational_status":"운영","office_of_edu_code":7010000,"office_of_edu_name":"서울특별시교육청","latitude":37.52024061,"longitude":127.1394507},
{"school_id":"B000011328","school_name":"신진과학기술고등학교","school_classification":"고등학교","operational_status":"운영","office_of_edu_code":7010000,"office_of_edu_name":"서울특별시교육청","latitude":37.59871385,"longitude":126.9188364},
{"school_id":"B000012095","school_name":"강동고등학교","school_classification":"고등학교","operational_status":"운영","office_of_edu_code":7010000,"office_of_edu_name":"서울특별시교육청","latitude":37.54991665,"longitude":127.1606683},
{"school_id":"B000012033","school_name":"여의도여자고등학교","school_classification":"고등학교","operational_status":"운영","office_of_edu_code":7010000,"office_of_edu_name":"서울특별시교육청","latitude":37.52288764,"longitude":126.9350871},
{"school_id":"B000013469","school_name":"서울여자고등학교","school_classification":"고등학교","operational_status":"운영","office_of_edu_code":7010000,"office_of_edu_name":"서울특별시교육청","latitude":37.5477805,"longitude":126.94907},
{"school_id":"B000012045","school_name":"삼성고등학교","school_classification":"고등학교","operational_status":"운영","office_of_edu_code":7010000,"office_of_edu_name":"서울특별시교육청","latitude":37.46913998,"longitude":126.9436438},
{"school_id":"B000011289","school_name":"경기상업고등학교","school_classification":"고등학교","operational_status":"운영","office_of_edu_code":7010000,"office_of_edu_name":"서울특별시교육청","latitude":37.58925853,"longitude":126.9700571},
{"school_id":"B000011792","school_name":"이화여자외국어고등학교","school_classification":"고등학교","operational_status":"운영","office_of_edu_code":7010000,"office_of_edu_name":"서울특별시교육청","latitude":37.56557732,"longitude":126.9696417},
{"school_id":"B000013462","school_name":"신일고등학교","school_classification":"고등학교","operational_status":"운영","office_of_edu_code":7010000,"office_of_edu_name":"서울특별시교육청","latitude":37.62796722,"longitude":127.0284031},
{"school_id":"B000011326","school_name":"예일디자인고등학교","school_classification":"고등학교","operational_status":"운영","office_of_edu_code":7010000,"office_of_edu_name":"서울특별시교육청","latitude":37.6109459,"longitude":126.9147928},
{"school_id":"B000012021","school_name":"한서고등학교","school_classification":"고등학교","operational_status":"운영","office_of_edu_code":7010000,"office_of_edu_name":"서울특별시교육청","latitude":37.5747927,"longitude":126.8081439},
{"school_id":"B000013451","school_name":"경일고등학교","school_classification":"고등학교","operational_status":"운영","office_of_edu_code":7010000,"office_of_edu_name":"서울특별시교육청","latitude":37.54382982,"longitude":127.0478683},
{"school_id":"B000011922","school_name":"덕성여자고등학교","school_classification":"고등학교","operational_status":"운영","office_of_edu_code":7010000,"office_of_edu_name":"서울특별시교육청","latitude":37.57776082,"longitude":126.9835581},
{"school_id":"B000011324","school_name":"선정국제관광고등학교","school_classification":"고등학교","operational_status":"운영","office_of_edu_code":7010000,"office_of_edu_name":"서울특별시교육청","latitude":37.61870451,"longitude":126.9090316},
{"school_id":"B000011340","school_name":"서울항공비즈니스고등학교","school_classification":"고등학교","operational_status":"운영","office_of_edu_code":7010000,"office_of_edu_name":"서울특별시교육청","latitude":37.56921778,"longitude":126.8170408},
{"school_id":"B000012001","school_name":"신서고등학교","school_classification":"고등학교","operational_status":"운영","office_of_edu_code":7010000,"office_of_edu_name":"서울특별시교육청","latitude":37.52391432,"longitude":126.8602096},
{"school_id":"B000011979","school_name":"대진여자고등학교","school_classification":"고등학교","operational_status":"운영","office_of_edu_code":7010000,"office_of_edu_name":"서울특별시교육청","latitude":37.6461736,"longitude":127.0671966},
{"school_id":"B000011989","school_name":"선일여자고등학교","school_classification":"고등학교","operational_status":"운영","office_of_edu_code":7010000,"office_of_edu_name":"서울특별시교육청","latitude":37.62030421,"longitude":126.9119931},
{"school_id":"B000011297","school_name":"대경상업고등학교","school_classification":"고등학교","operational_status":"운영","office_of_edu_code":7010000,"office_of_edu_name":"서울특별시교육청","latitude":37.55637326,"longitude":127.0169792},
{"school_id":"B000011295","school_name":"서울의료보건고등학교","school_classification":"고등학교","operational_status":"운영","office_of_edu_code":7010000,"office_of_edu_name":"서울특별시교육청","latitude":37.55729809,"longitude":126.9667727},
{"school_id":"B000011302","school_name":"성수공업고등학교","school_classification":"고등학교","operational_status":"운영","office_of_edu_code":7010000,"office_of_edu_name":"서울특별시교육청","latitude":37.54054,"longitude":127.0512991},
{"school_id":"B000013475","school_name":"구현고등학교","school_classification":"고등학교","operational_status":"운영","office_of_edu_code":7010000,"office_of_edu_name":"서울특별시교육청","latitude":37.5022028,"longitude":126.8744458},
{"school_id":"B000011995","school_name":"명지고등학교","school_classification":"고등학교","operational_status":"운영","office_of_edu_code":7010000,"office_of_edu_name":"서울특별시교육청","latitude":37.58491135,"longitude":126.9270902},
{"school_id":"B000012026","school_name":"신도림고등학교","school_classification":"고등학교","operational_status":"운영","office_of_edu_code":7010000,"office_of_edu_name":"서울특별시교육청","latitude":37.51406292,"longitude":126.8820838},
{"school_id":"B000023259","school_name":"계성고등학교","school_classification":"고등학교","operational_status":"운영","office_of_edu_code":7010000,"office_of_edu_name":"서울특별시교육청","latitude":37.6074936,"longitude":127.0201836},
{"school_id":"B000013450","school_name":"중경고등학교","school_classification":"고등학교","operational_status":"운영","office_of_edu_code":7010000,"office_of_edu_name":"서울특별시교육청","latitude":37.5176804,"longitude":126.9756383},
{"school_id":"B000027171","school_name":"공항고등학교","school_classification":"고등학교","operational_status":"운영","office_of_edu_code":7010000,"office_of_edu_name":"서울특별시교육청","latitude":37.57046109,"longitude":126.8185198},
{"school_id":"B000013465","school_name":"수락고등학교","school_classification":"고등학교","operational_status":"운영","office_of_edu_code":7010000,"office_of_edu_name":"서울특별시교육청","latitude":37.6829317,"longitude":127.053571},
{"school_id":"B000012047","school_name":"성보고등학교","school_classification":"고등학교","operational_status":"운영","office_of_edu_code":7010000,"office_of_edu_name":"서울특별시교육청","latitude":37.48072837,"longitude":126.9209573},
{"school_id":"B000012091","school_name":"선사고등학교","school_classification":"고등학교","operational_status":"운영","office_of_edu_code":7010000,"office_of_edu_name":"서울특별시교육청","latitude":37.55631588,"longitude":127.1357998},
{"school_id":"B000011946","school_name":"태릉고등학교","school_classification":"고등학교","operational_status":"운영","office_of_edu_code":7010000,"office_of_edu_name":"서울특별시교육청","latitude":37.61916383,"longitude":127.0855576},
{"school_id":"B000011315","school_name":"세그루패션디자인고등학교","school_classification":"고등학교","operational_status":"운영","office_of_edu_code":7010000,"office_of_edu_name":"서울특별시교육청","latitude":37.65634868,"longitude":127.0268766},
{"school_id":"B000011298","school_name":"용산공업고등학교","school_classification":"고등학교","operational_status":"운영","office_of_edu_code":7010000,"office_of_edu_name":"서울특별시교육청","latitude":37.5243031,"longitude":126.9673581},
{"school_id":"B000012015","school_name":"명덕고등학교","school_classification":"고등학교","operational_status":"운영","office_of_edu_code":7010000,"office_of_edu_name":"서울특별시교육청","latitude":37.5539075,"longitude":126.8342914},
{"school_id":"B000011342","school_name":"예림디자인고등학교","school_classification":"고등학교","operational_status":"운영","office_of_edu_code":7010000,"office_of_edu_name":"서울특별시교육청","latitude":37.50035507,"longitude":126.827683},
{"school_id":"B000011930","school_name":"보성여자고등학교","school_classification":"고등학교","operational_status":"운영","office_of_edu_code":7010000,"office_of_edu_name":"서울특별시교육청","latitude":37.54308154,"longitude":126.9842996},
{"school_id":"B000011300","school_name":"서울디지텍고등학교","school_classification":"고등학교","operational_status":"운영","office_of_edu_code":7010000,"office_of_edu_name":"서울특별시교육청","latitude":37.53896942,"longitude":126.9906121},
{"school_id":"B000011934","school_name":"성수고등학교","school_classification":"고등학교","operational_status":"운영","office_of_edu_code":7010000,"office_of_edu_name":"서울특별시교육청","latitude":37.54734181,"longitude":127.0382534},
{"school_id":"B000011967","school_name":"상계고등학교","school_classification":"고등학교","operational_status":"운영","office_of_edu_code":7010000,"office_of_edu_name":"서울특별시교육청","latitude":37.65272468,"longitude":127.0554534},
{"school_id":"B000012094","school_name":"광문고등학교","school_classification":"고등학교","operational_status":"운영","office_of_edu_code":7010000,"office_of_edu_name":"서울특별시교육청","latitude":37.56046181,"longitude":127.1585463},
{"school_id":"B000012089","school_name":"둔촌고등학교","school_classification":"고등학교","operational_status":"운영","office_of_edu_code":7010000,"office_of_edu_name":"서울특별시교육청","latitude":37.53143258,"longitude":127.1438087},
{"school_id":"B000013480","school_name":"장훈고등학교","school_classification":"고등학교","operational_status":"운영","office_of_edu_code":7010000,"office_of_edu_name":"서울특별시교육청","latitude":37.51334559,"longitude":126.9162285},
{"school_id":"B000025890","school_name":"대일관광고등학교","school_classification":"고등학교","operational_status":"운영","office_of_edu_code":7010000,"office_of_edu_name":"서울특별시교육청","latitude":37.51141377,"longitude":126.8349067},
{"school_id":"B000011361","school_name":"상일미디어고등학교","school_classification":"고등학교","operational_status":"운영","office_of_edu_code":7010000,"office_of_edu_name":"서울특별시교육청","latitude":37.54858748,"longitude":127.1708235},
{"school_id":"B000012022","school_name":"한광고등학교","school_classification":"고등학교","operational_status":"운영","office_of_edu_code":7010000,"office_of_edu_name":"서울특별시교육청","latitude":37.53884371,"longitude":126.857922},
{"school_id":"B000012011","school_name":"세현고등학교","school_classification":"고등학교","operational_status":"운영","office_of_edu_code":7010000,"office_of_edu_name":"서울특별시교육청","latitude":37.56043066,"longitude":126.8636211},
{"school_id":"B000011969","school_name":"노원고등학교","school_classification":"고등학교","operational_status":"운영","office_of_edu_code":7010000,"office_of_edu_name":"서울특별시교육청","latitude":37.66180319,"longitude":127.0540195},
{"school_id":"B000012093","school_name":"상일여자고등학교","school_classification":"고등학교","operational_status":"운영","office_of_edu_code":7010000,"office_of_edu_name":"서울특별시교육청","latitude":37.54858748,"longitude":127.1708235},
{"school_id":"B000012096","school_name":"한영고등학교","school_classification":"고등학교","operational_status":"운영","office_of_edu_code":7010000,"office_of_edu_name":"서울특별시교육청","latitude":37.5491315,"longitude":127.1577731},
{"school_id":"B000011938","school_name":"동국대학교사범대학부속여자고등학교","school_classification":"고등학교","operational_status":"운영","office_of_edu_code":7010000,"office_of_edu_name":"서울특별시교육청","latitude":37.54192936,"longitude":127.0869732},
{"school_id":"B000026237","school_name":"풍문고등학교","school_classification":"고등학교","operational_status":"운영","office_of_edu_code":7010000,"office_of_edu_name":"서울특별시교육청","latitude":37.4713596,"longitude":127.0999634},
{"school_id":"B000022793","school_name":"금호고등학교","school_classification":"고등학교","operational_status":"운영","office_of_edu_code":7010000,"office_of_edu_name":"서울특별시교육청","latitude":37.5536215,"longitude":127.0234338},
{"school_id":"B000011334","school_name":"서울금융고등학교","school_classification":"고등학교","operational_status":"운영","office_of_edu_code":7010000,"office_of_edu_name":"서울특별시교육청","latitude":37.5376165,"longitude":126.8256209},
{"school_id":"B000011329","school_name":"은평메디텍고등학교","school_classification":"고등학교","operational_status":"운영","office_of_edu_code":7010000,"office_of_edu_name":"서울특별시교육청","latitude":37.63534652,"longitude":126.9297048},
{"school_id":"B000011359","school_name":"성덕고등학교","school_classification":"고등학교","operational_status":"운영","office_of_edu_code":7010000,"office_of_edu_name":"서울특별시교육청","latitude":37.54996367,"longitude":127.1419039},
{"school_id":"B000011309","school_name":"서울도시과학기술고등학교","school_classification":"고등학교","operational_status":"운영","office_of_edu_code":7010000,"office_of_edu_name":"서울특별시교육청","latitude":37.6078128,"longitude":127.0330442},
{"school_id":"B000013453","school_name":"광양고등학교","school_classification":"고등학교","operational_status":"운영","office_of_edu_code":7010000,"office_of_edu_name":"서울특별시교육청","latitude":37.52937892,"longitude":127.0851823},
{"school_id":"B000011981","school_name":"염광고등학교","school_classification":"고등학교","operational_status":"운영","office_of_edu_code":7010000,"office_of_edu_name":"서울특별시교육청","latitude":37.63028445,"longitude":127.0492646},
{"school_id":"B000022815","school_name":"환일고등학교","school_classification":"고등학교","operational_status":"운영","office_of_edu_code":7010000,"office_of_edu_name":"서울특별시교육청","latitude":37.55360652,"longitude":126.9628021},
{"school_id":"B000022796","school_name":"도선고등학교","school_classification":"고등학교","operational_status":"운영","office_of_edu_code":7010000,"office_of_edu_name":"서울특별시교육청","latitude":37.56684395,"longitude":127.0269957}]